FacilityID,TankIDAssociatedwithRelease,LUSTID,FederallyReportableRelease,SiteName,SiteAddress,SiteAddress2,SiteCity,Zipcode,County,State,EPARegion,FacilityType,TribalSite,Tribe,Latitude,Longitude,CoordinateSource,LUSTStatus,ReportedDate,NFADate,MediaImpactedSoil,MediaImpactedGroundwater,MediaImpactedSurfaceWater,SubstanceReleased1,QuantityReleased1,Unit1,SubstanceReleased2,QuantityReleased2,Unit2,SubstanceReleased3,AmountReleased3,Unit3,SubstanceReleased4,AmountReleased4,Unit4,SubstanceReleased5,AmountReleased5,Unit5,SourceOfRelease1,CauseOfRelease1,SourceOfRelease2,CauseOfRelease2,SourceOfRelease3,CauseOfRelease3,HowReleaseDetected,CorrectiveActionStrategy1,CorrectiveActionStrategy1StartDate,CorrectiveActionStrategy2,CorrectiveActionStrategy2StartDate,CorrectiveActionStrategy3,CorrectiveActionStrategy3StartDate,ClosedWithContamination,NoFurtherActionLetterURL,MilitaryDoDSite
560,,9LTL37,No,ONAWA PUBLIC LIBRARY,707 IOWA AVENUE,,Onawa,51040-,Monona,IA,7,,,,42.02639,-96.09334,GPS,,2004-03-31,,No,No,No,Diesel,,Gallons,,,,,,,,,,,,,,,,,,,Other,,,,,,,Yes,,Unknown
8771,,7LTG02,No,"MERITON AUTOMOTIVE, HVS, LCC",1801 WEST STONE RD,,Fairfield,525560000,Jefferson,IA,7,,,,41.01419,-91.98454,GPS,No further action,1989-09-28,1994-10-21,No,No,No,Waste Oil,0.0,Gallons,,,,,,,,,,,,,,,,,,,At tank removal,,,,,,,Yes,,Unknown
9365,,7LTF63,No,IDOT DIST OFFICE,5455 KIRKWOOD AVE,,Cedar Rapids,524040000,Linn,IA,7,,,,41.96238,-91.67591,GPS,No further action,1989-09-11,1999-12-23,No,No,No,Gasoline,0.0,Gallons,,,,,,,,,,,,,,,,,,,Other,,,,,,,Yes,,Unknown
11449,,9LTR86,No,HOLTZ'S MINI MART,150 MAIN ST,,Hornick,51026,Woodbury,IA,7,,,,42.22869,-96.09693,Geocoded address,,2017-05-22,,No,No,No,Diesel,0.0,Gallons,Gasoline,0.0,Gallons,,,,,,,,,,Unknown,Unknown,Dispenser,Other,,,Other,,,,,,,Yes,,Unknown
7291,,8LTQ74,No,GAS AMERICA,3205 BRADY ST,,Davenport,52803,Scott,IA,7,,,,41.55312,-90.56892,GPS,No further action,1991-02-22,2010-06-03,No,No,No,Gasoline,,Gallons,,,,,,,,,,,,,Piping,Piping failure,,,,,Other,Groundwater Treatment: Injection Oxygen,2003-06-15,,,,,Yes,,Unknown
4769,,7LTE97,No,AG PROCESSING INC,,,Manning,51455,Carroll,IA,7,,,,41.92082,-95.07065,GPS,No further action,1989-05-03,2005-07-13,No,No,No,,,,,,,,,,,,,,,,,,,,,,Other,,,,,,,Yes,,Unknown
5658,,8LTF66,No,FLEXSTEEL INDUSTRIES INC,3473 Jackson St,,Dubuque,520010000,Dubuque,IA,7,,,,42.53013,-90.68183,GPS,,1990-10-24,,No,No,No,Diesel,,Gallons,,,,,,,,,,,,,Unknown,Unknown,,,,,Other,,,,,,,Yes,,Unknown
7698,,8LTE42,No,KWIK SHOP #534,1221 EAST PIERCE,,Council Bluffs,515010000,Pottawattamie,IA,7,,,,41.27079,-95.83021,GPS,,1990-10-29,,No,No,No,Gasoline,0.0,Gallons,,,,,,,,,,,,,,,,,,,Other,,,,,,,Yes,,Unknown
3661,,7LTX66,No,FORMER E COHN & SONS,900 L ST SW,,Cedar Rapids,524040000,Linn,IA,7,,,,41.9669,-91.67209,GPS,No further action,1988-06-09,1992-02-04,No,No,No,Diesel,0.0,Gallons,Gasoline,0.0,Gallons,,,,,,,,,,,,Unknown,Unknown,,,At tank removal,,,,,,,Yes,,Unknown
7672,,7LTT32,No,LONE TREE BP,122 DEVOE ST,,Lone Tree,52755,Johnson,IA,7,,,,41.48639,-91.42536,GPS,No further action,1990-08-30,2023-11-28,No,No,No,Kerosene,0.0,Gallons,Gasoline,0.0,Gallons,Diesel,0.0,Gallons,,,,,,,,,,,,,Other,,,,,,,Yes,,Unknown
3319,,7LTE13,No,FORMER KERR MCGEE #9532,1507 PARK AVE,,Muscatine,527610000,Muscatine,IA,7,,,,41.44307,-91.03074,GPS,No further action,1989-06-30,2006-10-04,No,No,No,Gasoline,0.0,Gallons,,,,,,,,,,,,,Unknown,Unknown,,,,,Other,Groundwater Treatment: Injection Oxygen,,,,,,Yes,,Unknown
618,,7LTF89,No,FRISKIE'S PET CARE,2400 5TH AVENUE SOUTH,,Fort Dodge,50501,Webster,IA,7,,,,42.50139,-94.16639,Map interpolation,,1989-09-25,,No,No,No,Diesel,0.0,Gallons,,,,,,,,,,,,,Unknown,Unknown,,,,,At tank removal,Over-excavation:Thru Over-excavation,,,,,,Yes,,Unknown
16619,,7LTK92,No,STANDARD CHEMICAL MFG CO,206 2ND AVENUE,,Malvern,515510000,Mills,IA,7,,,,41.00002,-95.58655,GPS,,1990-03-20,,No,No,No,Gasoline,0.0,Gallons,,,,,,,,,,,,,,,,,,,At tank removal,,,,,,,Yes,,Unknown
12512,,8LTG70,No,LUCAS COUNTY HEALTH CENTER,1200 N 7th St,,Chariton,500490000,Lucas,IA,7,,,,41.02782,-93.30094,GPS,No further action,1990-11-01,2002-01-08,Yes,No,No,Gasoline,,Gallons,,,,,,,,,,,,,Unknown,Unknown,,,,,Other,,,,,,,Yes,,Unknown
1863,,9LTA35,No,"OELWEIN MOTORS, INC.",126 S. FREDERICK,,Oelwein,506620000,Fayette,IA,7,,,,42.67576,-91.91366,GPS,No further action,1994-11-03,2013-07-09,No,No,No,Waste Oil,,Gallons,Gasoline,,Gallons,,,,,,,,,,Unknown,Unknown,,,,,Other,,,,,,,Yes,,Unknown
9883,,9LTQ32,No,DES MOINES SCHOOLS TRANSPORTATION FACILITY,1915 Prospect Road,,Des Moines,50310,Polk,IA,7,,,,41.62048,-93.64736,Geocoded address,No further action,2013-07-02,2014-01-24,No,No,No,Fuel Oil,0.0,Gallons,Diesel,0.0,Gallons,,,,,,,,,,Tank,Tank corrosion,Piping,Piping failure,,,Other,,,,,,,Yes,,Unknown
694,,7LTM41,No,REIS AUTO PARTS & SERVICE,300 DES MOINES ST,,Odebolt,514580000,Sac,IA,7,,,,42.31057,-95.24563,Other,No further action,1990-05-14,2001-11-08,No,No,No,Gasoline,0.0,Gallons,,,,,,,,,,,,,,,,,,,Other,,,,,,,Yes,,Unknown
8376,,9LTH71,No,FORMER IRELAN OIL CO,115 N Haynes Ave,,Centerville,525440000,Appanoose,IA,7,,,,40.73272,-92.87214,GPS,No further action,1999-02-17,2001-06-05,Yes,No,No,,,,,,,,,,,,,,,,,,,,,,Other,,,,,,,Yes,,Unknown
8960,,7LTA89,No,LINN COUNTY ROAD DEPT,833 N 1st Ave,,Mount Vernon,523140000,Linn,IA,7,,,,41.92894,-91.41073,GPS,No further action,1988-09-28,2003-07-09,Yes,No,No,Gasoline,0.0,Gallons,,,,,,,,,,,,,,,,,,,Other,,,,,,,Yes,,Unknown
5719,,8LTD89,No,INGLES CONOCO,3rd St,,Ollie,525760000,Keokuk,IA,7,,,,41.19846,-92.09454,GPS,No further action,1990-10-24,2013-08-01,No,No,No,Gasoline,0.0,Gallons,,,,,,,,,,,,,Unknown,Unknown,,,,,Other,Over-excavation:Land Application,2004-05-03,,,,,Yes,,Unknown
10067,,7LTC98,No,YESWAY 1034,112 RIVER AVE S,,Belmond,50421,Wright,IA,7,,,,42.84536,-93.61703,GPS,,1989-04-04,,No,No,No,Diesel,0.0,Gallons,Gasoline,0.0,Gallons,,,,,,,,,,Unknown,Unknown,,,,,At tank removal,Over-excavation:Thru Over-excavation,,,,,,Yes,,Unknown
274,,9LTC37,No,FORMER MOBILE STATION AKA WHITING AUTO,704 WELLS STREET,,Whiting,510630000,Monona,IA,7,,,,42.12761,-96.1519,GPS,No further action,1995-09-19,2001-06-01,No,No,No,Diesel,,Gallons,Gasoline,,Gallons,,,,,,,,,,,,Unknown,Unknown,,,Other,,,,,,,Yes,,Unknown
6017,,8LTS16,No,CITY OF IOWA CITY EQUIPMENT DIVISION,200 PARK RD,,Iowa City,522400000,Johnson,IA,7,,,,41.67463,-91.54022,GPS,No further action,1992-02-18,2002-05-23,No,No,No,Gasoline,,Gallons,,,,,,,,,,,,,Unknown,Unknown,,,,,At tank removal,,,,,,,Yes,,Unknown
11540,,8LTT46,No,WEST HARRISON COMM SCHOOL,410 SECOND ST,,Pisgah,515640000,Harrison,IA,7,,,,41.83363,-95.92419,GPS,No further action,1992-06-04,1997-08-07,No,No,No,Gasoline,,Gallons,,,,,,,,,,,,,,,,,,,At tank removal,,,,,,,Yes,,Unknown
7794,,8LTK40,No,TEEPLE SERVICE STATION,116 NORTH 1ST STREET,,Greene,506360000,Butler,IA,7,,,,42.89629,-92.80254,GPS,No further action,1990-10-08,2006-11-27,No,No,No,Other Petroleum,,Gallons,Gasoline,,Gallons,Diesel,,Gallons,,,,,,,,,Unknown,Unknown,,,At tank removal,,,,,,,Yes,,Unknown
4555,,8LTP01,No,LINCOLN FARM & HOME,601 MORTON AVE,,Emerson,515330000,Mills,IA,7,,,,41.01703,-95.40351,GPS,No further action,1991-07-17,2002-11-01,No,No,No,Gasoline,,Gallons,,,,,,,,,,,,,Unknown,Unknown,,,,,At tank removal,,,,,,,Yes,,Unknown
8373,,9LTG04,No,PAGE OIL CO,Gilmore St,,Gilmore City,505410000,Humboldt,IA,7,,,,42.73256,-94.44301,GPS,No further action,1998-02-23,1999-04-30,No,No,No,Gasoline,,Gallons,,,,,,,,,,,,,Unknown,Unknown,,,,,At tank removal,,,,,,,Yes,,Unknown
6838,,8LTS11,No,CASEY'S GENERAL STORE 50,4 S 1ST ST,,Moville,51039,Woodbury,IA,7,,,,42.48836,-96.07475,Other,No further action,1992-02-11,1999-03-22,No,No,No,Gasoline,,Gallons,,,,,,,,,,,,,Unknown,Unknown,,,,,Other,,,,,,,Yes,,Unknown
263,,9LTC00,No,WATERWORKS CAR WASH,525 W KIMBERLY RD,,Davenport,528060000,Scott,IA,7,,,,41.55936,-90.58116,Other,,1995-06-21,,No,No,No,Gasoline,,Gallons,,,,,,,,,,,,,Unknown,Unknown,,,,,At tank removal,,,,,,,Yes,,Unknown
9825,,7LTS22,No,TJS GAS AND GRUB,2000 HIGHWAY 130,,Bennett,52721,Cedar,IA,7,,,,41.74391,-90.97566,GPS,,1990-08-14,,No,No,No,Gasoline,0.0,Gallons,,,,,,,,,,,,,Unknown,Unknown,,,,,Other,,,,,,,Yes,,Unknown
616,,9LTH04,No,CASEY'S GENERAL STORE 2784,4151 MERLE HAY RD,,Des Moines,50310-1316,Polk,IA,7,,,,41.63649,-93.697,Map interpolation,No further action,1998-11-10,2002-02-27,Yes,No,No,Diesel,0.0,Gallons,Gasoline,0.0,Gallons,,,,,,,,,,,,,,,,At tank removal,,,,,,,Yes,,Unknown
8285,,7LTH75,No,ROBERT BEAMER,205 SOUTH MADISON,,Ottumwa,525010000,Wapello,IA,7,,,,41.00138,-92.41237,Other,No further action,,1999-02-05,No,No,No,Gasoline,0.0,Gallons,,,,,,,,,,,,,,,,,,,At tank removal,,,,,,,Yes,,Unknown
5167,,9LTR39,No,SARA'S MINI MART,2020 7TH AVE,,Marion,52302,Linn,IA,7,,,,42.03364,-91.59003,GPS,No further action,2016-07-11,2018-04-12,No,No,No,Gasoline,0.0,Gallons,,,,,,,,,,,,,Piping,Piping failure,,,,,Other,,,,,,,Yes,,Unknown
8441,,7LTJ59,No,YESWAY 1030,1317 E MARY ST,,Ottumwa,52501,Wapello,IA,7,,,,40.99507,-92.40572,Other,No further action,1990-02-02,2001-01-19,No,No,No,Gasoline,0.0,Gallons,,,,,,,,,,,,,Unknown,Unknown,,,,,Other,,,,,,,Yes,,Unknown
13407,,8LTL27,No,O HARA'S PHILLIPS 66 SERVICE,1122 DODGE ST,,Dubuque,520010000,Dubuque,IA,7,,,,42.48957,-90.67581,GPS,No further action,1990-12-19,2016-08-16,No,No,No,Diesel,,Gallons,Gasoline,,Gallons,,,,,,,,,,Unknown,Unknown,,,,,Other,,,,,,,Yes,,Unknown
11308,,8LTM70,No,GOWRIE 66 SERVICE,1208 MARKET ST,,Gowrie,50543,Webster,IA,7,,,,42.28075,-94.2917,GPS,,1990-10-16,,No,No,No,Waste Oil,,Gallons,Gasoline,,Gallons,Diesel,,Gallons,,,,,,,Unknown,Unknown,,,,,Other,,,,,,,Yes,,Unknown
4984,,7LTX46,No,CASEY'S GENERAL STORE 2785,1602 W  1ST ST,,Ankeny,50021,Polk,IA,7,,,,41.73215,-93.62212,Geocoded address,No further action,1988-03-01,2001-11-27,No,No,No,Gasoline,0.0,Gallons,,,,,,,,,,,,,,,,,,,Other,,,,,,,Yes,,Unknown
8685,,7LTQ99,No,QUIKTRIP #531,510 10TH ST SE,,Cedar Rapids,524010000,Linn,IA,7,,,,41.98032,-91.65592,GPS,No further action,1990-08-14,2014-05-15,No,No,No,Gasoline,0.0,Gallons,,,,,,,,,,,,,Unknown,Unknown,,,,,Other,,,,,,,Yes,,Unknown
361,,9LTE48,No,FORMER MIDWEST  REPAIR,377 Railway St,,Bayard,500290000,Guthrie,IA,7,,,,41.85241,-94.55763,GPS,,1997-01-13,,No,No,No,Diesel,,Gallons,Gasoline,,Gallons,,,,,,,,,,Unknown,Unknown,,,,,At tank removal,,,,,,,Yes,,Unknown
3194,,7LTC48,No,DALLAS COUNTY ADEL SHOP,415 RIVER ST,,Adel,500030000,Dallas,IA,7,,,,41.61577,-94.01339,GPS,No further action,1988-07-01,2010-10-13,No,No,No,,,,,,,,,,,,,,,,,,,,,,Other,Groundwater Treatment: Other,,,,,,Yes,,Unknown
17168,,8LTX89,No,TAX ACQUIRED PROPERTY,1221 FOREST AVE,,Des Moines,503140000,Polk,IA,7,,,,41.60424,-93.63408,GPS,No further action,1994-01-05,2010-12-14,No,No,No,Gasoline,,Gallons,,,,,,,,,,,,,Unknown,Unknown,,,,,Other,,,,,,,Yes,,Unknown
3350,,7LTA67,No,CONVENIENCE & SAVE,2459 E EUCLID,,Des Moines,503170000,Polk,IA,7,,,,41.62731,-93.57115,GPS,No further action,1988-08-01,2010-08-23,No,No,No,Gasoline,0.0,Gallons,,,,,,,,,,,,,,,,,,,Other,,,,,,,Yes,,Unknown
7109,,8LTI83,No,SPARKY'S ONE STOP #21,1004 IOWA AVE,,Onawa,51040,Monona,IA,7,,,,42.027,-96.09769,GPS,,1990-11-28,,No,No,No,Other Petroleum,,Gallons,Gasoline,,Gallons,,,,,,,,,,,,Unknown,Unknown,,,Other,,,,,,,Yes,,Unknown
2976,,8LTP87,No,KEN KRAUSE MOTORS INC,4613 370th St,,Emmetsburg,505360000,Palo Alto,IA,7,,,,43.11292,-94.6633,GPS,,1991-08-13,,No,No,No,Waste Oil,,Gallons,Gasoline,,Gallons,,,,,,,,,,Unknown,Unknown,,,,,At tank removal,,,,,,,Yes,,Unknown
1587,,8LTS73,No,STEWART MEMORIAL COMMUNITY HOSPITAL,1301 W MAIN ST,,Lake City,51449,Calhoun,IA,7,,,,42.26743,-94.74653,Geocoded address,,1992-03-27,,No,No,No,Diesel,,Gallons,,,,,,,,,,,,,Unknown,Unknown,,,,,At tank removal,,,,,,,Yes,,Unknown
5078,,8LTA88,No,HELLER TIRE CENTER,202 MAIN,,Portsmouth,515650000,Shelby,IA,7,,,,41.64987,-95.51897,GPS,No further action,1990-09-24,2009-02-19,No,No,No,Gasoline,0.0,Gallons,,,,,,,,,,,,,,,,,,,At tank removal,,,,,,,Yes,,Unknown
6714,,7LTJ60,No,XO FOOD & LIQUOR,428 FRANKLIN ST,,Waterloo,50703-3520,Black Hawk,IA,7,,,,42.50137,-92.33482,GPS,No further action,1990-02-01,1996-02-08,No,No,No,Gasoline,0.0,Gallons,,,,,,,,,,,,,,,,,,,Other,,,,,,,Yes,,Unknown
38,,7LTI56,No,ROCK RAPIDS (UNKNOWN SOURCE),5th Ave,,Rock Rapids,512460000,Lyon,IA,7,,,,43.42753,-96.16906,Other,,,,No,No,No,Unknown,0.0,Gallons,,,,,,,,,,,,,Unknown,Unknown,,,,,Other,,,,,,,Yes,,Unknown
9891,,9LTK44,No,PHILLIPS ELEMENTARY SCHOOLS,1701 LAY STREET,,Des Moines,503170000,Polk,IA,7,,,,41.60849,-93.57228,GPS,No further action,,2003-11-24,No,No,No,Diesel,,Gallons,,,,,,,,,,,,,Tank,Tank corrosion,,,,,Other,,,,,,,Yes,,Unknown
1738,,8LTA97,No,FARMERS COOP ELEVATOR,101 ISABELLA ST,,Radcliffe,50230,Hardin,IA,7,,,,42.3106,-93.43444,GPS,,1990-09-28,,No,No,No,Diesel,0.0,Gallons,Gasoline,0.0,Gallons,,,,,,,,,,,,,,,,Other,,,,,,,Yes,,Unknown
13034,,8LTK36,No,LOUISA COUNTY SHERIFFS DEPT,503 FRANKLIN ST,,Wapello,526510000,Louisa,IA,7,,,,41.17868,-91.18757,GPS,,1991-01-04,,No,No,No,Diesel,,Gallons,,,,,,,,,,,,,Unknown,Unknown,,,,,At tank removal,Over-excavation:Thru Over-excavation,,,,,,Yes,,Unknown
187,,8LTX88,No,CRESCENT ELECTRIC SUPPLY,313 SW 5TH,,Des Moines,503070000,Polk,IA,7,,,,41.58126,-93.6212,GPS,No further action,1993-11-17,1997-09-30,No,No,No,Unknown,,Gallons,,,,,,,,,,,,,Unknown,Unknown,,,,,At tank removal,,,,,,,Yes,,Unknown
4235,,7LTU71,No,WESSELS OIL CO INC,SE Corner Intersection of Hansen Ave and Minnie St,,Palmer,505710000,Pocahontas,IA,7,,,,42.6314,-94.60045,Map interpolation,No further action,1990-09-18,1998-10-06,No,No,No,Gasoline,0.0,Gallons,,,,,,,,,,,,,,,,,,,Other,,,,,,,Yes,,Unknown
9519,,8LTJ48,No,CALHOUN CO SECONDARY ROADS,106 E 4TH,,Lake City,514490000,Calhoun,IA,7,,,,42.26241,-94.73305,GPS,No further action,1990-09-21,1998-09-15,No,No,No,Waste Oil,,Gallons,,,,,,,,,,,,,,,,,,,At tank removal,,,,,,,Yes,,Unknown
8420,,8LTK20,No,KUM & GO #442,2900 FALLS AVENUE,,Waterloo,507010000,Black Hawk,IA,7,,,,42.50011,-92.38331,GPS,No further action,1990-12-31,2002-03-26,No,No,No,Diesel,,Gallons,Gasoline,,Gallons,,,,,,,,,,,,Unknown,Unknown,,,Other,,,,,,,Yes,,Unknown
2744,,8LTA45,No,LOGLI'S STORE,508 N 4TH ST,,Fairfield,52556,Jefferson,IA,7,,,,41.0126,-91.96828,GPS,No further action,1990-10-03,1999-06-02,No,No,No,Gasoline,0.0,Gallons,,,,,,,,,,,,,Unknown,Unknown,,,,,Other,,,,,,,Yes,,Unknown
8346,,8LTA20,No,SIOUX FEED INC,4192 US 75 Ave,,Sioux Center,512500000,Sioux,IA,7,,,,43.0414,-96.17569,GPS,No further action,1990-10-04,2001-10-08,No,No,No,Diesel,0.0,Gallons,Gasoline,0.0,Gallons,,,,,,,,,,,,Unknown,Unknown,,,Other,,,,,,,Yes,,Unknown
531,,9LTK58,No,"ADULTS, INC.",319 W BREMER AVE,,Waverly,50677,Bremer,IA,7,,,,42.72545,-92.47549,GPS,No further action,2002-10-08,2004-08-03,No,No,No,Diesel,,Gallons,Gasoline,,Gallons,,,,,,,,,,,,Tank,Tank corrosion,,,Other,,,,,,,Yes,,Unknown
16256,,7LTQ08,No,DRUMMOND'S TIRE & RENTAL CO.,318 BARDELL,,Ottumwa,525010000,Wapello,IA,7,,,,41.00981,-92.41607,Other,No further action,1990-08-02,2002-10-02,No,No,No,Gasoline,0.0,Gallons,,,,,,,,,,,,,,,,,,,Other,,,,,,,Yes,,Unknown
10918,,9LTK76,No,FORMER WIOTA FOOD & FUEL,404 PIONEER AVE,,Wiota,502740000,Cass,IA,7,,,,41.40383,-94.88949,Geocoded address,,2003-02-05,,No,No,No,Gasoline,,Gallons,,,,,,,,,,,,,Unknown,Unknown,,,,,Other,,,,,,,Yes,,Unknown
8095,,7LTM12,No,FORT DODGE REGIONAL AIRPORT,1639 Nelson Ave # 2,,Fort Dodge,505010000,Webster,IA,7,,,,42.55035,-94.18211,GPS,No further action,1990-04-18,2001-12-21,No,No,No,Other Petroleum,0.0,Gallons,Gasoline,0.0,Gallons,Diesel,0.0,Gallons,,,,,,,Unknown,Unknown,,,,,Other,,,,,,,Yes,,Unknown
1323,,8LTR38,No,GREENE COUNTY MEDICAL CENTER,1000 W LINCOLNWAY,,Jefferson,501290000,Greene,IA,7,,,,42.01618,-94.3884,Map interpolation,No further action,1991-12-18,1992-08-26,No,No,No,Diesel,,Gallons,Gasoline,,Gallons,,,,,,,,,,Unknown,Unknown,,,,,At tank removal,Over-excavation:Thru Over-excavation,,,,,,Yes,,Unknown
11045,,9LTG23,No,NEW CENTURY FS BAYARD,110 3RD AVE ,,Bayard,50029,Guthrie,IA,7,,,,41.84888,-94.55703,GPS,No further action,1998-05-13,1998-11-16,No,No,No,Diesel,,Gallons,Gasoline,,Gallons,,,,,,,,,,Unknown,Unknown,,,,,Other,,,,,,,Yes,,Unknown
8741,,9LTA68,No,SLEPER OIL COMPANY,15 FIRST AVENUE W,,Buffalo Center,504240000,Winnebago,IA,7,,,,43.38604,-93.94736,GPS,No further action,1994-12-06,2005-08-10,No,No,No,Diesel,,Gallons,Gasoline,,Gallons,,,,,,,,,,Unknown,Unknown,,,,,At tank removal,,,,,,,Yes,,Unknown
18160,,9LTP10,No,FORMER FILLING STATION,5408 MILITARY RD,,Sioux City,51109,Woodbury,IA,7,,,,42.52242,-96.47788,Geocoded address,No further action,2011-04-13,2012-08-02,No,No,No,Diesel,0.0,Gallons,Gasoline,0.0,Gallons,,,,,,,,,,,,Tank,Tank corrosion,,,Other,,,,,,,Yes,,Unknown
11226,,8LTW85,No,FORMER LEHIGH CLAY PRODUCTS SITE,3044 RACINE AVE,,Lehigh,50577,Webster,IA,7,,,,42.3475,-94.06725,GPS,,1993-08-16,,No,No,No,Diesel,,Gallons,,,,,,,,,,,,,Unknown,Unknown,,,,,Other,,,,,,,Yes,,Unknown
7819,,9LTA72,No,STALKERS WESTSIDE 66,1217 4TH ST SW,,Mason City,50401,Cerro Gordo,IA,7,,,,43.14812,-93.2205,Map interpolation,,1994-09-19,,No,No,No,Gasoline,,Gallons,,,,,,,,,,,,,Unknown,Unknown,,,,,Other,,,,,,,Yes,,Unknown
3005,,9LTL83,No,FORMER TODD'S AUTO,204 NORTH CARPENTER,,Sumner,506740000,Bremer,IA,7,,,,42.84851,-92.09758,Other,No further action,2004-11-30,2013-05-28,No,No,No,Diesel,,Gallons,Gasoline,,Gallons,,,,,,,,,,,,Unknown,Unknown,,,Other,,,,,,,Yes,,Unknown
8059,,8LTZ46,No,U S WEST,900 LOCUST,,Dubuque,52001,Dubuque,IA,7,,,,42.5019,-90.66875,GPS,No further action,1994-07-11,1997-07-18,No,No,No,Fuel Oil,,Gallons,,,,,,,,,,,,,Unknown,Unknown,,,,,At tank removal,,,,,,,Yes,,Unknown
9340,,9LTA87,No,GOODYEAR TIRE CENTER 5670,101 EAST MAIN ST,,Marengo,523010000,Iowa,IA,7,,,,41.80045,-92.0702,Other,No further action,1994-12-05,1995-11-02,No,No,No,Waste Oil,,Gallons,,,,,,,,,,,,,Unknown,Unknown,,,,,At tank removal,Over-excavation:Thru Over-excavation,1995-06-15,,,,,Yes,,Unknown
1478,,9LTK07,No,RIVER HILLS SWITCHING STATION,105 WATSON POWELL JR. WAY,,Des Moines,503090000,Polk,IA,7,,,,41.58973,-93.61949,GPS,No further action,2001-12-10,2002-04-18,No,No,No,Diesel,,Gallons,,,,,,,,,,,,,Tank,Tank corrosion,,,,,Other,,,,,,,Yes,,Unknown
217,,8LTZ88,No,POST OFFICE,117 W MARION ST,,Monroe,501700000,Jasper,IA,7,,,,41.52181,-93.10377,GPS,No further action,1994-08-04,1999-05-05,No,No,No,Fuel Oil,,Gallons,,,,,,,,,,,,,Unknown,Unknown,,,,,Other,,,,,,,Yes,,Unknown
4440,,8LTG12,No,MODERN WELDING CO INC,2818 MT PLEASANT,,Burlington,526010000,Des Moines,IA,7,,,,40.82613,-91.14281,Other,,1990-10-24,,No,No,No,Diesel,,Gallons,Gasoline,,Gallons,,,,,,,,,,Unknown,Unknown,,,,,Other,,,,,,,Yes,,Unknown
16431,,9LTD17,No,RMI WELLSBURG,W 4TH STREET,,Wellsburg,506800000,Grundy,IA,7,,,,42.43396,-92.9255,GPS,No further action,1996-02-02,2015-02-03,No,No,No,Gasoline,,Gallons,,,,,,,,,,,,,Unknown,Unknown,,,,,Other,,,,,,,Yes,,Unknown
10672,,8LTF17,No,DES MOINES GOLF & COUNTRY CLUB (see 199217575),1600 74TH ST,,West Des Moines,50266,Dallas,IA,7,,,,41.56985,-93.7962,Other,,1990-10-08,,No,No,No,Gasoline,,Gallons,,,,,,,,,,,,,,,,,,,At tank removal,,,,,,,Yes,,Unknown
2860,,7LTS10,No,VAN BUREN COUNTY SHERIFFS DEPT,950 4TH ST,,Keosauqua,525650000,Van Buren,IA,7,,,,40.73415,-91.96311,Other,No further action,1990-08-14,1992-02-13,No,No,No,Gasoline,0.0,Gallons,,,,,,,,,,,,,,,,,,,At tank removal,Over-excavation:Thru Over-excavation,1990-07-15,,,,,Yes,,Unknown
4757,,7LTY34,No,SORENSON TIRE & AUTO,1101 W SHERIDAN,,Shenandoah,51601,Page,IA,7,,,,40.76623,-95.37993,GPS,,1987-11-23,,No,No,No,Gasoline,0.0,Gallons,,,,,,,,,,,,,,,,,,,Other,,,,,,,Yes,,Unknown
2932,,8LTD57,No,OBRIEN COUNTY MAINT BUILDING,602 S MAPLE,,Paullina,510460000,O'Brien,IA,7,,,,42.97289,-95.68417,GPS,,1990-10-24,,No,No,No,Diesel,0.0,Gallons,Gasoline,0.0,Gallons,,,,,,,,,,,,Unknown,Unknown,,,Other,,,,,,,Yes,,Unknown
15992,,9LTJ63,No,VIDEO STORE,1408 W FIRST STREET,,Cedar Falls,506130000,Black Hawk,IA,7,,,,42.5377,-92.46224,Map interpolation,No further action,2001-05-10,2002-03-08,Yes,No,No,Gasoline,,Gallons,,,,,,,,,,,,,Unknown,Unknown,,,,,Other,,,,,,,Yes,,Unknown
3147,,9LTL38,No,AGVANTAGE FS,614 MAIN ST,,Dumont,506250000,Butler,IA,7,,,,42.75067,-92.97248,GPS,No further action,2004-03-24,2007-10-19,No,No,No,Diesel,,Gallons,,,,,,,,,,,,,,,,,,,Other,,,,,,,Yes,,Unknown
1016,,7LTO94,No,CASEY'S GENERAL STORE 2366,1809 9TH AVE E,,Oskaloosa,52577-3535,Mahaska,IA,7,,,,41.28749,-92.62316,Geocoded address,No further action,1990-07-06,1999-02-02,No,No,No,Gasoline,0.0,Gallons,,,,,,,,,,,,,Unknown,Unknown,,,,,Other,,,,,,,Yes,,Unknown
5173,,7LTM58,No,CASEY'S GENERAL STORE 2777,65 WILLIAMS BLVD,,Fairfax,52228,Linn,IA,7,,,,41.9288,-91.77889,Map interpolation,,1990-05-07,,No,No,No,Gasoline,0.0,Gallons,,,,,,,,,,,,,,,,,,,Other,Groundwater Treatment: Injection Nutrient(s),2003-10-15,,,,,Yes,,Unknown
7094,,7LTI94,No,SHUEY AUTO SERVICE,402 G AVE,,Grundy Center,506380000,Grundy,IA,7,,,,42.36133,-92.76851,Other,,,,No,No,No,Waste Oil,0.0,Gallons,,,,,,,,,,,,,,,,,,,At tank removal,Over-excavation:Thru Over-excavation,,,,,,Yes,,Unknown
7995,,8LTU11,No,MCELENEY CAR WASH,2417 MCKINLEY ST,,Clinton,527320000,Clinton,IA,7,,,,41.8725,-90.17565,GPS,,1992-07-21,,No,No,No,Gasoline,0.0,Gallons,,,,,,,,,,,,,,,,,,,Other,,,,,,,Yes,,Unknown
16855,,8LTT17,No,CAPITAL CITY BOILER & MACHINE,3950 VANDALIA ROAD,,Des Moines,503170000,Polk,IA,7,,,,41.56914,-93.53584,GPS,No further action,1992-05-11,1995-07-14,No,No,No,Gasoline,,Gallons,,,,,,,,,,,,,Unknown,Unknown,,,,,Other,,,,,,,Yes,,Unknown
2014,,7LTM59,No,TURNER'S 66,137 2nd St,,Pulaski,525840000,Davis,IA,7,,,,40.69738,-92.27369,GPS,No further action,1990-04-26,2019-12-12,No,No,No,Gasoline,0.0,Gallons,,,,,,,,,,,,,Unknown,Unknown,,,,,Other,Groundwater Treatment: Other,2014-06-23,,,,,Yes,,Unknown
7379,,7LTU61,No,WEST UNION TIRE,204 S VINE,,West Union,521750000,Fayette,IA,7,,,,42.95981,-91.80849,GPS,No further action,1990-08-10,2011-01-13,No,No,No,Other Petroleum,0.0,Gallons,Gasoline,0.0,Gallons,Diesel,0.0,Gallons,,,,,,,,,Unknown,Unknown,,,Other,Over-excavation:Land Application,2005-05-10,,,,,Yes,,Unknown
3744,,7LTV61,No,SPARKY'S ONE STOP #2,370TH ST,,Auburn,51433,Sac,IA,7,,,,42.25283,-94.87737,GPS,No further action,1990-09-14,1999-08-02,No,No,No,Diesel,0.0,Gallons,Gasoline,0.0,Gallons,,,,,,,,,,,,Unknown,Unknown,,,Other,,,,,,,Yes,,Unknown
8698,,7LTM87,No,BURLINGTON NORTHERN RR,Burlington St,,Ottumwa,525010000,Wapello,IA,7,,,,41.00999,-92.40348,GPS,No further action,1990-05-18,2001-08-09,No,No,No,Gasoline,0.0,Gallons,,,,,,,,,,,,,,,,,,,At tank removal,,,,,,,Yes,,Unknown
9568,,8LTN47,No,HANCOCK COUNTY SHED,237 Maple St,,Corwith,504300000,Hancock,IA,7,,,,42.99361,-93.95703,GPS,,1991-05-14,,No,No,No,Diesel,,Gallons,,,,,,,,,,,,,Unknown,Unknown,,,,,At tank removal,,,,,,,Yes,,Unknown
16642,,8LTC17,No,FARMERS ELEVATOR CO,102 1ST AVENUE NORTH,,Altoona,500090000,Polk,IA,7,,,,41.65186,-93.46506,GPS,No further action,1990-10-22,2011-10-24,No,No,No,Diesel,0.0,Gallons,Gasoline,0.0,Gallons,,,,,,,,,,,,,,,,Other,Groundwater Treatment: Air Sparging,2002-09-23,,,,,Yes,,Unknown
3263,,8LTM31,No,GRIFFITH FORD MERCURY INC,1518 United States Highway 71,,Carroll,514010000,Carroll,IA,7,,,,42.07502,-94.87943,Other,Active: general,1991-03-25,,No,No,No,Waste Oil,,Gallons,,,,,,,,,,,,,Unknown,Unknown,,,,,At tank removal,,,,,,,Yes,,Unknown
1667,,7LTG77,No,ABANDONED GAS STATION,2136 Highway 6 Trl,,Marengo,523010000,Iowa,IA,7,,,,41.78979,-92.07538,GPS,No further action,1989-09-20,2007-09-17,No,No,No,Gasoline,0.0,Gallons,,,,,,,,,,,,,,,,,,,At tank removal,,,,,,,Yes,,Unknown
457,,9LTI07,No,FORMER GAS STATION,1122 DACE,,Sioux City,51101,Woodbury,IA,7,,,,42.48851,-96.39502,Map interpolation,No further action,1999-06-25,2009-08-07,No,No,No,Gasoline,,Gallons,,,,,,,,,,,,,,,,,,,Other,Groundwater Treatment: Other,2004-06-10,,,,,Yes,,Unknown
6707,,7LTN13,No,AMOCO #5051,2071 E UNIVERSITY AVE,,Des Moines,503170000,Polk,IA,7,,,,41.60037,-93.57949,GPS,No further action,1990-06-01,1997-01-31,No,No,No,Gasoline,0.0,Gallons,,,,,,,,,,,,,Unknown,Unknown,,,,,At tank removal,,,,,,,Yes,,Unknown
1661,,8LTW80,No,DIEOMATIC TRUCKING INC,State Highway 149,,Williamsburg,523610000,Iowa,IA,7,,,,41.68162,-92.00677,GPS,No further action,1993-05-19,2001-06-27,No,No,No,Diesel,,Gallons,,,,,,,,,,,,,Unknown,Unknown,,,,,Other,,,,,,,Yes,,Unknown
1475,,9LTQ36,No,JOHNNYS SERVICE,311 13TH ST N,,Humboldt,50548,Humboldt,IA,7,,,,42.72419,-94.22676,Geocoded address,No further action,2013-07-23,2016-05-26,No,No,No,Waste Oil,0.0,Gallons,Gasoline,0.0,Gallons,,,,,,,,,,Tank,Tank corrosion,Piping,Piping failure,,,Other,Over-excavation:Sanitary Landfill,2014-05-01,,,,,Yes,,Unknown
3459,,8LTH44,No,ELKADER SHOP,601 HIGH STREET NE,,Elkader,520430000,Clayton,IA,7,,,,42.861,-91.40414,GPS,,1990-10-26,,No,No,No,,,,,,,,,,,,,,,,,,,,,,At tank removal,,,,,,,Yes,,Unknown
8870,,7LTW01,No,POKORNY BP AUTOMOTIVE SERVICE,500 W ADAMS ST,,Creston,50801,Union,IA,7,,,,41.05723,-94.36728,GPS,,1990-09-18,,Yes,No,No,Diesel,0.0,Gallons,Gasoline,0.0,Gallons,,,,,,,,,,,,,,,,Other,,,,,,,Yes,,Unknown
9449,,7LTA55,No,IDOT GARAGE,410 S BOONE,,Rock Rapids,512460000,Lyon,IA,7,,,,43.42849,-96.16915,Other,No further action,1988-05-12,2000-03-07,No,No,No,Gasoline,0.0,Gallons,,,,,,,,,,,,,,,,,,,Other,Over-excavation:Thru Over-excavation,1999-07-13,,,,,Yes,,Unknown
6411,,8LTF80,No,FORMER H&H TOWN AND COUNTRY,501 HARTFORD,(HARTFORD & WARDEN STREETS),Farragut,516390000,Fremont,IA,7,,,,40.71851,-95.48124,Other,,1990-10-26,,No,No,No,Diesel,,Gallons,Gasoline,,Gallons,,,,,,,,,,,,,,,,Other,,,,,,,Yes,,Unknown
1826,,8LTG55,No,COCA COLA BOTTLING COMPANY,2435 KERPER BLVD,,Dubuque,520010000,Dubuque,IA,7,,,,42.52327,-90.6536,GPS,,1990-10-12,,No,No,No,,,,,,,,,,,,,,,,,,,,,,At tank removal,,,,,,,Yes,,Unknown
17079,,8LTW98,No,FORMER TURF & TRAIL CO,2550 RANCHERO ROAD,,Waterloo,507010000,Black Hawk,IA,7,,,,42.45558,-92.40958,GPS,No further action,1993-07-29,2013-05-13,No,No,No,Gasoline,,Gallons,,,,,,,,,,,,,Unknown,Unknown,,,,,Other,,,,,,,Yes,,Unknown
6848,,7LTP89,No,CASEY'S,109 CENTER AVENUE,,Mitchellville,501690000,Polk,IA,7,,,,41.66649,-93.35761,GPS,No further action,1990-07-30,2001-03-26,No,No,No,Gasoline,0.0,Gallons,,,,,,,,,,,,,Unknown,Unknown,,,,,Other,,,,,,,Yes,,Unknown
9552,,8LTW78,No,STARMONT COMM SCHOOLS,336 Park Ave,,Strawberry Point,520760000,Clayton,IA,7,,,,42.68066,-91.5371,GPS,,1993-07-27,,No,No,No,Gasoline,,Gallons,,,,,,,,,,,,,Unknown,Unknown,,,,,At tank removal,,,,,,,Yes,,Unknown
423,,9LTG45,No,FORMER SERVICE STATION,609 CHATBORN AVE,,Harlan,51537,Shelby,IA,7,,,,41.64511,-95.31885,GPS,No further action,1996-06-28,2015-02-11,No,No,No,Gasoline,,Gallons,,,,,,,,,,,,,Unknown,Unknown,,,,,Other,,,,,,,Yes,,Unknown
4596,,8LTX12,No,CITY OF INDIANOLA,1180 HOOVER,,Indianola,501250000,Warren,IA,7,,,,41.38612,-93.58161,GPS,,1993-09-13,,No,No,No,Diesel,,Gallons,,,,,,,,,,,,,Unknown,Unknown,,,,,Other,,,,,,,Yes,,Unknown
10609,,7LTA99,No,JAY'S SERVICE,4401 HICKMAN RD,,Des Moines,503100000,Polk,IA,7,,,,41.61515,-93.67808,GPS,No further action,1988-09-15,2009-04-27,No,No,No,Gasoline,0.0,Gallons,,,,,,,,,,,,,,,,,,,Other,,,,,,,Yes,,Unknown
9781,,7LTW82,No,VICTOR'S CONOCO,901 42ND,,Des Moines,503120000,Polk,IA,7,,,,41.59404,-93.67392,GPS,No further action,1990-09-25,1999-02-15,No,No,No,Gasoline,0.0,Gallons,,,,,,,,,,,,,Unknown,Unknown,,,,,Other,,,,,,,Yes,,Unknown
5237,,8LTZ51,No,GIESE SAND & GRAVEL INC,United States Highway 18,,Britt,504230000,Hancock,IA,7,,,,43.09696,-93.90258,GPS,No further action,1994-07-07,1995-02-09,No,No,No,Gasoline,,Gallons,,,,,,,,,,,,,Unknown,Unknown,,,,,At tank removal,Over-excavation:Thru Over-excavation,1994-10-15,,,,,Yes,,Unknown
7969,,8LTB96,No,WOODBURY COUNTY MAINT SHED,406 POPLAR ST,,Salix,510520000,Woodbury,IA,7,,,,42.30816,-96.28732,GPS,No further action,1990-10-19,2007-06-25,No,No,No,Diesel,0.0,Gallons,Gasoline,0.0,Gallons,,,,,,,,,,,,Unknown,Unknown,,,Other,,,,,,,Yes,,Unknown
18251,,9LTQ14,No,ST PATRICK CATHOLIC CHURCH,607 6TH STREET,,Corning,50841,Adams,IA,7,,,,40.98789,-94.73629,Geocoded address,No further action,2013-02-13,2016-03-17,No,No,No,Gasoline,0.0,Gallons,,,,,,,,,,,,,Tank,Tank corrosion,,,,,Other,Over-excavation:Land Application,,,,,,Yes,,Unknown
3842,,7LTJ30,No,KWIK STAR #717,100 5TH AVE NE,,Independence,50644,Buchanan,IA,7,,,,42.46918,-91.889,GPS,,1989-09-13,,No,No,No,Gasoline,0.0,Gallons,,,,,,,,,,,,,,,,,,,Other,,,,,,,Yes,,Unknown
8947,,7LTS60,No,CEC GEORGE,100 S VIRGINIA ST,,George,51237,Lyon,IA,7,,,,43.34349,-95.9987,GPS,No further action,1990-08-29,2005-07-18,No,No,No,Diesel,0.0,Gallons,Gasoline,0.0,Gallons,,,,,,,,,,,,Unknown,Unknown,,,Other,,,,,,,Yes,,Unknown
6565,,7LTV19,No,STEVE & TOMS 66,330 2ND AVE SW,,Cresco,521360000,Howard,IA,7,,,,43.37132,-92.12179,GPS,,1990-09-06,,No,No,No,Diesel,0.0,Gallons,Gasoline,0.0,Gallons,,,,,,,,,,,,Unknown,Unknown,,,Other,,,,,,,Yes,,Unknown
7673,,7LTT31,No,BP ONE TRIP,1504 E WASHINGTON ST,,Washington,52353-2102,Washington,IA,7,,,,41.29832,-91.67454,GPS,No further action,1990-08-30,2004-11-16,No,No,No,Diesel,0.0,Gallons,Gasoline,0.0,Gallons,,,,,,,,,,Unknown,Unknown,,,,,Other,,,,,,,Yes,,Unknown
16901,,8LTP68,No,OCHEYEDAN CONSTRUCTION INC,832 MAIN STREET,,Ocheyedan,513540000,Osceola,IA,7,,,,43.41681,-95.53458,Other,No further action,1991-08-23,1999-12-21,No,No,No,Gasoline,,Gallons,,,,,,,,,,,,,Unknown,Unknown,,,,,At tank removal,,,,,,,Yes,,Unknown
3044,,8LTO58,No,SOUTH WINNESHIEK COMM SCHOOL,305 S WASHINGTON,,Calmar,521320000,Winneshiek,IA,7,,,,43.18299,-91.86638,GPS,No further action,1991-06-21,2000-10-05,Yes,No,No,Gasoline,,Gallons,,,,,,,,,,,,,Unknown,Unknown,,,,,Other,,,,,,,Yes,,Unknown
184,,8LTX70,No,FORMER BANK,6401 HICKMAN ROAD,,Des Moines,503220000,Polk,IA,7,,,,41.61513,-93.70661,GPS,No further action,1993-11-29,2017-01-11,No,No,No,Gasoline,,Gallons,,,,,,,,,,,,,Unknown,Unknown,,,,,Other,,,,,,,Yes,,Unknown
4400,,8LTM13,No,STORY COUNTY SHED,9TH & O AVE,,Nevada,502010000,Story,IA,7,,,,42.02518,-93.44809,GPS,No further action,1991-02-27,2000-05-22,No,No,No,Waste Oil,,Gallons,Gasoline,,Gallons,Diesel,,Gallons,,,,,,,,,Unknown,Unknown,,,Other,,,,,,,Yes,,Unknown
7832,,7LTY50,No,VALLEY RESTAURANT INC,168 N U Ave,,Villisca,508640000,Montgomery,IA,7,,,,40.93234,-94.98575,GPS,Active: general,1986-12-08,,No,No,No,Unknown,0.0,Gallons,,,,,,,,,,,,,,,,,,,Other,Groundwater Treatment: Injection Oxygen,2016-09-15,,,,,Yes,,Unknown
10472,,8LTV22,No,KUM & GO #94,1616 S STORY ST,,Boone,500360000,Boone,IA,7,,,,42.03756,-93.87896,GPS,,1992-11-02,,No,No,No,Gasoline,,Gallons,,,,,,,,,,,,,Unknown,Unknown,,,,,Other,,,,,,,Yes,,Unknown
6925,,7LTJ07,No,RICE'S AMOCO,509 SE KENT,,Greenfield,508490000,Adair,IA,7,,,,41.30339,-94.45356,GPS,No further action,1990-01-11,2000-01-11,No,No,No,Gasoline,0.0,Gallons,,,,,,,,,,,,,Unknown,Unknown,,,,,Other,,,,,,,Yes,,Unknown
9776,,9LTT58,No,IOWA'S BEST BURGER CAFE,1570 HIGHWAY 224 S,,Kellogg,501350000,Jasper,IA,7,,,,41.68485,-92.90254,GPS,No further action,2022-12-19,2023-09-20,No,No,No,Diesel,0.0,Gallons,Gasoline,0.0,Gallons,,,,,,,,,,Other,Other,Dispenser,Other,,,Other,,,,,,,Yes,,Unknown
10049,,9LTE67,No,YEAROUS MOTORS,103 RIVER DR,,Princeton,527680000,Scott,IA,7,,,,41.6772,-90.3396,GPS,No further action,1996-10-10,2003-04-10,No,No,No,Gasoline,,Gallons,,,,,,,,,,,,,Unknown,Unknown,,,,,Other,,,,,,,Yes,,Unknown
15113,,9LTB39,No,HAWKEYE LIQUOR AND CONVENIENCE,287 MAIN ST,,Lansing,52151,Allamakee,IA,7,,,,43.36164,-91.21681,GPS,No further action,1995-03-14,2003-11-07,No,No,No,Gasoline,,Gallons,,,,,,,,,,,,,Unknown,Unknown,,,,,Other,,,,,,,Yes,,Unknown
9375,,9LTB13,No,IDOT,2507 210TH ST,,Williamsburg,52361,Iowa,IA,7,,,,41.70274,-92.00621,GPS,,1995-01-18,,No,No,No,Diesel,,Gallons,,,,,,,,,,,,,Unknown,Unknown,,,,,At tank removal,Over-excavation:Thru Over-excavation,1996-06-15,,,,,Yes,,Unknown
7408,,8LTL20,No,CITY OF NEWTON GOLF COURSE,2807 1ST AVE W,,Newton,502080000,Jasper,IA,7,,,,41.69753,-93.09623,GPS,No further action,1991-02-08,1995-04-18,No,No,No,Gasoline,,Gallons,,,,,,,,,,,,,Unknown,Unknown,,,,,At tank removal,,,,,,,Yes,,Unknown
3768,,9LTN35,No,CASEYS GENERAL STORE 2687,1001 AVENUE E,,Hawarden,51023,Sioux,IA,7,,,,42.99677,-96.48847,Geocoded address,No further action,2007-09-24,2011-12-09,No,No,No,Waste Oil,0.0,Gallons,Gasoline,0.0,Gallons,Diesel,0.0,Gallons,,,,,,,,,Unknown,Unknown,,,Other,,,,,,,Yes,,Unknown
18274,,9LTQ55,No,CITY OF VAN METER PROPERTY,416 WEST STREET,,Van Meter,50261,Dallas,IA,7,,,,41.53286,-93.9559,Geocoded address,,2013-10-30,,No,No,No,Gasoline,0.0,Gallons,,,,,,,,,,,,,Tank,Tank corrosion,,,,,Other,,,,,,,Yes,,Unknown
9908,,9LTJ95,No,HILLIS ELEMENTARY SCHOOL,2401 56TH ST,,Des Moines,503100000,Polk,IA,7,,,,41.61585,-93.69389,GPS,No further action,2001-10-05,2002-03-07,No,No,No,Fuel Oil,,Gallons,,,,,,,,,,,,,Tank,Tank corrosion,,,,,Other,,,,,,,Yes,,Unknown
172,,8LTW68,No,FORMER SERVICE  STATION),220 E MAPLE,,Centerville,525440000,Appanoose,IA,7,,,,40.73239,-92.87223,GPS,No further action,1993-06-30,2001-11-16,No,No,No,Gasoline,,Gallons,,,,,,,,,,,,,Unknown,Unknown,,,,,Other,,,,,,,Yes,,Unknown
7613,,8LTC12,No,KWIK STAR #615,1908 CLARK,,Charles City,506160000,Floyd,IA,7,,,,43.05892,-92.66187,GPS,No further action,1990-10-17,2006-08-18,No,No,No,Diesel,0.0,Gallons,Gasoline,0.0,Gallons,,,,,,,,,,,,,,,,Other,,,,,,,Yes,,Unknown
2344,,7LTB81,No,MONTOUR SCHOOL,390 E Jacob St,,Montour,501730000,Tama,IA,7,,,,41.98263,-92.7112,Other,No further action,1988-10-18,2001-11-15,No,No,No,Gasoline,0.0,Gallons,,,,,,,,,,,,,Unknown,Unknown,,,,,At tank removal,,,,,,,Yes,,Unknown
7509,,8LTG62,No,COASTAL MART INC #1080,3410 STATE ST,,Bettendorf,527220000,Scott,IA,7,,,,41.52783,-90.48673,GPS,No further action,1990-10-22,2024-04-12,No,No,No,Diesel,,Gallons,Gasoline,,Gallons,,,,,,,,,,,,Unknown,Unknown,,,Other,Groundwater Treatment: Other,2019-10-14,,,,,Yes,,Unknown
8601,,8LTY96,No,GIT-N-GO #36,4164 EASTON BLVD,,Des Moines,50317,Polk,IA,7,,,,41.61545,-93.53251,GPS,No further action,1994-05-04,2002-09-05,No,No,No,Gasoline,,Gallons,,,,,,,,,,,,,Unknown,Unknown,,,,,Other,,,,,,,Yes,,Unknown
516,,9LTJ97,No,FORMER GAS STATION,4321 MAIN STREET,,Andover,52701-,Clinton,IA,7,,,,41.97898,-90.25236,GPS,,2001-09-14,,No,No,No,Gasoline,,Gallons,,,,,,,,,,,,,Unknown,Unknown,,,,,Other,,,,,,,Yes,,Unknown
18395,,9LTR40,No,FORMER NELSONS SERVICE,99 UNIVERSITY,,Des Moines,50319,Polk,IA,7,,,,41.60057,-93.61872,Geocoded address,No further action,2016-07-19,2017-05-18,No,No,No,Waste Oil,0.0,Gallons,Gasoline,0.0,Gallons,Diesel,0.0,Gallons,,,,,,,Unknown,Unknown,,,,,Other,,,,,,,Yes,,Unknown
301,,9LTD11,No,"FORMER ""NORTH STATION""",Washington St,,Hamburg,516400000,Fremont,IA,7,,,,40.61543,-95.65111,GPS,No further action,1995-11-08,1998-11-06,No,No,No,Diesel,,Gallons,Gasoline,,Gallons,,,,,,,,,,,,Unknown,Unknown,,,At tank removal,,,,,,,Yes,,Unknown
3340,,7LTJ73,No,QUICK D'S,2626 PIERCE ST,,Sioux City,511040000,Woodbury,IA,7,,,,42.51802,-96.40468,Map interpolation,,1990-01-24,,No,No,No,Gasoline,0.0,Gallons,,,,,,,,,,,,,Unknown,Unknown,,,,,Other,,,,,,,Yes,,Unknown
896,,7LTM42,No,LONE TREE COMM SCHOOL DISTRICT,303 DEVOE STR,,Lone Tree,527550000,Johnson,IA,7,,,,41.48475,-91.42616,Other,,1990-04-09,,No,No,No,Gasoline,0.0,Gallons,,,,,,,,,,,,,Piping,Piping failure,,,,,At tank removal,Over-excavation:Thru Over-excavation,1990-04-19,,,,,Yes,,Unknown
18414,,9LTR58,No,FORMER GAS STATION,803 4TH AVENUE SOUTH,,Denison,51442,Crawford,IA,7,,,,42.01218,-95.36353,Geocoded address,Active: general,2014-07-24,,No,No,No,Unknown,0.0,Gallons,Gasoline,0.0,Gallons,Diesel,0.0,Gallons,,,,,,,,,,,,,Other,Bio-remediation: Passive,2020-06-13,,,,,Yes,,Unknown
2457,,7LTU15,No,GIT-N-GO CONVENIENCE STORE #2,1307 ARMY POST RD ,,Des Moines,50315,Polk,IA,7,,,,41.5269,-93.63314,GPS,No further action,1990-09-14,1999-06-04,No,No,No,Waste Oil,0.0,Gallons,Gasoline,0.0,Gallons,,,,,,,,,,,,Unknown,Unknown,,,Other,,,,,,,Yes,,Unknown
8660,,8LTT16,No,WORLD LIQUOR & TOBACCO + VAPORS,111 DUFF AVE,,Ames,50010,Story,IA,7,,,,42.02353,-93.61069,GPS,,1990-07-31,,No,No,No,Kerosene,,Gallons,Gasoline,,Gallons,,,,,,,,,,Unknown,Unknown,,,,,Other,,,,,,,Yes,,Unknown
1683,,9LTM82,No,CHRISTENSEN REFRACTORY,101 Highway 183,,Pisgah,515640000,Harrison,IA,7,,,,41.82993,-95.92632,GPS,No further action,2006-10-16,2008-07-03,No,No,No,Diesel,,Gallons,,,,,,,,,,,,,Tank,Overfill (general),,,,,Other,,,,,,,Yes,,Unknown
374,,9LTE79,No,FORMER UST SITE,4503 SW 9TH STREET,,Des Moines,503090000,Polk,IA,7,,,,41.54347,-93.62555,GPS,No further action,1997-05-02,1997-09-22,No,No,No,Unknown,,Gallons,,,,,,,,,,,,,Unknown,Unknown,,,,,Other,,,,,,,Yes,,Unknown
18386,,9LTR24,No,NEW BOHEMIA STATION,1020 3RD STREET SE,,Cedar Rapids,52401,Linn,IA,7,,,,41.97136,-91.65872,Geocoded address,,2016-01-15,,No,No,No,Diesel,0.0,Gallons,Gasoline,0.0,Gallons,,,,,,,,,,,,Tank,Tank corrosion,,,Other,,,,,,,Yes,,Unknown
2729,,7LTW43,No,KWIK STAR #562,4619 N BRADY ST,,Davenport,52806,Scott,IA,7,,,,41.56822,-90.56744,GPS,No further action,1990-09-20,1995-02-20,No,No,No,Gasoline,0.0,Gallons,,,,,,,,,,,,,Unknown,Unknown,,,,,Other,,,,,,,Yes,,Unknown
3255,,8LTT40,No,FOLEY CONSTRUCTION CO,2105 LINCOLNWAY,,Clinton,527320000,Clinton,IA,7,,,,41.81528,-90.23777,Other,No further action,1992-05-08,1998-12-14,No,No,No,Fuel Oil,,Gallons,Gasoline,,Gallons,Diesel,,Gallons,,,,,,,,,Unknown,Unknown,,,Other,,,,,,,Yes,,Unknown
17990,,9LTN18,No,FORMER GAS STATION,2301 FOREST AVE,,Des Moines,50311-3113,Polk,IA,7,,,,41.60388,-93.64821,Geocoded address,No further action,2007-06-29,2009-09-01,No,No,No,Waste Oil,0.0,Gallons,,,,,,,,,,,,,Tank,Tank corrosion,,,,,Other,,,,,,,Yes,,Unknown
18443,,9LTR81,No,SIGN PRO,619 SOUTH 4TH STREET,,Ames,50010,Story,IA,7,,,,42.01926,-93.61878,Map interpolation,,2017-05-10,,No,No,No,Unknown,0.0,Gallons,,,,,,,,,,,,,Tank,Tank corrosion,,,,,Other,,,,,,,Yes,,Unknown
3887,,8LTF25,No,MORGAN TRUCKING CO INC,1201 E 5TH,,Muscatine,527610000,Muscatine,IA,7,,,,41.43072,-91.03621,Other,,1990-10-22,,No,No,No,Diesel,,Gallons,,,,,,,,,,,,,Unknown,Unknown,,,,,Other,,,,,,,Yes,,Unknown
5230,,7LTX31,No,"COASTAL MART, INC #1008",321 RICHMOND,,Ottumwa,525010000,Wapello,IA,7,,,,41.00614,-92.42791,GPS,No further action,1988-05-12,2005-01-27,No,No,No,Gasoline,0.0,Gallons,,,,,,,,,,,,,,,,,,,Other,,,,,,,Yes,,Unknown
11313,,8LTU71,No,FORMER GIANNETTO,203 E CENTER,,Union,502580000,Hardin,IA,7,,,,42.24442,-93.06124,Other,,1992-10-14,,No,No,No,Gasoline,,Gallons,,,,,,,,,,,,,Unknown,Unknown,,,,,At tank removal,,,,,,,Yes,,Unknown
8438,,7LTY02,No,KUM & GO #608,1001 SANBORN AVE,,Okoboji,51355,Dickinson,IA,7,,,,43.38186,-95.12922,GPS,No further action,1986-05-12,1999-12-21,No,No,No,Gasoline,0.0,Gallons,,,,,,,,,,,,,Unknown,Unknown,,,,,Other,,,,,,,Yes,,Unknown
10973,,9LTB52,No,OTHO CONVENIENCE AND FOOD,210 N HIGHWAY ST,,Otho,50569,Webster,IA,7,,,,42.4225,-94.15099,GPS,,1995-03-27,,No,No,No,Gasoline,,Gallons,,,,,,,,,,,,,Unknown,Unknown,,,,,Other,,,,,,,Yes,,Unknown
9027,,8LTL15,No,VAN DUSSELDORP SAND & GRAVEL INC,1720 Highway 117 S,,Colfax,500540000,Jasper,IA,7,,,,41.68777,-93.23927,GPS,No further action,1991-02-21,1993-05-05,No,No,No,Diesel,,Gallons,Gasoline,,Gallons,,,,,,,,,,,,Unknown,Unknown,,,Other,,,,,,,Yes,,Unknown
2176,,9LTJ06,No,FORMER B & C SERVICE,206 WEST MAIN,,Lockridge,526350000,Jefferson,IA,7,,,,40.99452,-91.74988,GPS,Active: general,2000-09-22,,No,No,No,Gasoline,,Gallons,,,,,,,,,,,,,Unknown,Unknown,,,,,Other,Groundwater Treatment: Injection Oxygen,2010-12-15,,,,,Yes,,Unknown
3999,,8LTD60,No,PALO ALTO COUNTY MAINT BLDG,June St,,Mallard,505620000,Palo Alto,IA,7,,,,42.93855,-94.67981,GPS,No further action,1990-10-24,2000-08-11,No,No,No,Diesel,0.0,Gallons,Gasoline,0.0,Gallons,,,,,,,,,,,,Unknown,Unknown,,,Other,,,,,,,Yes,,Unknown
6207,,9LTQ75,No,SARA MINI MART 2,931 STATE ST,,Bettendorf,527220000,Scott,IA,7,,,,41.54343,-90.45841,Other,,2014-06-10,,No,No,No,Kerosene,0.0,Gallons,Gasoline,0.0,Gallons,,,,,,,,,,,,,,,,Other,,,,,,,Yes,,Unknown
9360,,9LTD03,No,COLLINS ROAD TIRE INC,4958 Lakeside Dr NE,,Cedar Rapids,524010000,Linn,IA,7,,,,42.02729,-91.62227,GPS,No further action,1996-02-07,1998-11-22,No,No,No,Waste Oil,,Gallons,,,,,,,,,,,,,Unknown,Unknown,,,,,At tank removal,,,,,,,Yes,,Unknown
4531,,9LTF87,No,LIBERTY STORE,1118 HWY 69,,Osceola,502130000,Clarke,IA,7,,,,41.14494,-93.65372,GPS,No further action,1997-10-31,2015-01-02,No,No,No,Gasoline,,Gallons,,,,,,,,,,,,,Unknown,Unknown,,,,,Other,,,,,,,Yes,,Unknown
7470,,7LTP77,No,BOB'S FAST LUBE,980 73RD,,Des Moines,503120000,Polk,IA,7,,,,41.59512,-93.71802,GPS,,1990-07-28,,No,No,No,Gasoline,0.0,Gallons,,,,,,,,,,,,,,,,,,,At tank removal,Over-excavation:Thru Over-excavation,1990-09-15,,,,,Yes,,Unknown
12332,,7LTD61,No,CARNEY OIL,1st St,,Crystal Lake,504320000,Hancock,IA,7,,,,43.224,-93.7903,GPS,,1989-05-10,,No,No,No,Gasoline,0.0,Gallons,,,,,,,,,,,,,Unknown,Unknown,,,,,Other,,,,,,,Yes,,Unknown
2551,,8LTY50,No,FAA RTRB,3060 Walford Rd,,Cedar Rapids,524030000,Linn,IA,7,,,,41.877,-91.70924,GPS,,1994-02-11,,No,No,No,Diesel,,Gallons,,,,,,,,,,,,,Unknown,Unknown,,,,,At tank removal,,,,,,,Yes,,Unknown
11035,,7LTT54,No,HANDIMART,2545 N DODGE ST,,Iowa City,522400000,Johnson,IA,7,,,,41.69078,-91.49622,GPS,No further action,1990-09-07,1999-03-03,No,No,No,Gasoline,0.0,Gallons,,,,,,,,,,,,,Unknown,Unknown,,,,,Other,,,,,,,Yes,,Unknown
9444,,7LTI65,No,IDOT MAINT GARAGE,700 NW 4TH ST,,Pocahontas,505740000,Pocahontas,IA,7,,,,42.73741,-94.67917,GPS,No further action,1989-12-13,1997-08-26,No,No,No,Diesel,0.0,Gallons,,,,,,,,,,,,,Unknown,Unknown,,,,,Other,,,,,,,Yes,,Unknown
9459,,7LTC39,No,IDOT-MAINT GARAGE,154 HIGHWAY 175 W,,Onawa,51040,Monona,IA,7,,,,42.0276,-96.1076,GPS,No further action,1989-01-20,2015-12-30,No,No,No,Gasoline,0.0,Gallons,,,,,,,,,,,,,Unknown,Unknown,,,,,Other,Groundwater Treatment: Air Sparging,2012-10-15,,,,,Yes,,Unknown
6922,,7LTX17,No,CASEY'S GENERAL STORE #5,600 N WALNUT ST,,Carroll,51401,Carroll,IA,7,,,,42.06384,-94.85999,GPS,No further action,1988-07-01,2001-09-25,No,No,No,Gasoline,0.0,Gallons,,,,,,,,,,,,,,,,,,,Other,,,,,,,Yes,,Unknown
8897,,8LTT12,No,SOUTHWEST MART PHILLIPS 66,3718 SW 9TH ST,,Des Moines,50315,Polk,IA,7,,,,41.55018,-93.62613,GPS,No further action,1992-05-11,2006-01-09,No,No,No,Gasoline,,Gallons,,,,,,,,,,,,,,,,,,,Other,,,,,,,Yes,,Unknown
17903,,9LTD42,No,CASEY'S GENERAL STORE 2922,3501 E 14TH ST,,Des Moines,50313,Polk,IA,7,,,,41.62633,-93.60028,GPS,No further action,1996-04-04,1999-04-08,No,No,No,Diesel,,Gallons,Gasoline,,Gallons,,,,,,,,,,,,Unknown,Unknown,,,Other,,,,,,,Yes,,Unknown
1958,,9LTT50,No,TAYLOR QUIK-PIK,2102 23RD ST,,Harlan,51537,Shelby,IA,7,,,,41.64861,-95.33926,GPS,No further action,2022-10-31,2023-02-27,No,No,No,Gasoline,0.0,Gallons,,,,,,,,,,,,,Dispenser,Other,,,,,Other,,,,,,,Yes,,Unknown
102,,8LTR39,No,FORMER PHILLIPS SERVICE STATION,1213 LEWIS BLVD,,Sioux City,511020000,Woodbury,IA,7,,,,42.50351,-96.37865,Map interpolation,No further action,1991-12-16,2015-11-20,No,No,No,Unknown,0.0,Gallons,,,,,,,,,,,,,Unknown,Unknown,,,,,Other,,,,,,,Yes,,Unknown
6363,,8LTN57,No,K MART #7261,5049 NE 14TH ST,,Des Moines,503130000,Polk,IA,7,,,,41.65283,-93.59756,GPS,No further action,1991-05-14,1995-09-25,No,No,No,Hydraulic Oil,,Gallons,,,,,,,,,,,,,Unknown,Unknown,,,,,Other,,,,,,,Yes,,Unknown
7771,,9LTS92,No,LATIMER FUEL AND SERVICE LLC,102 S AKIR ST,,Latimer,50452,Franklin,IA,7,,,,42.76396,-93.36824,Geocoded address,No further action,2020-12-03,2021-04-13,No,No,No,Diesel,0.0,Gallons,,,,,,,,,,,,,Dispenser,Other,,,,,Other,,,,,,,Yes,,Unknown
7287,,9LTG54,No,K & K FOOD & GAS,2365 ROCKINGHAM RD,,Davenport,52802,Scott,IA,7,,,,41.5143,-90.61276,GPS,No further action,1998-05-21,2015-10-23,No,No,No,Gasoline,,Gallons,,,,,,,,,,,,,Unknown,Unknown,,,,,Other,Over-excavation:Sanitary Landfill,2006-10-26,,,,,Yes,,Unknown
7354,,9LTA29,No,CASEYS GENERAL STORE 3888,1024 NE 1ST ST,,Ankeny,500210000,Polk,IA,7,,,,41.7322,-93.58191,GPS,No further action,1994-10-26,1998-06-01,No,No,No,Gasoline,,Gallons,,,,,,,,,,,,,Unknown,Unknown,,,,,Other,,,,,,,Yes,,Unknown
16450,,7LTW74,No,COUNTRY STORES OF CARROLL LTD,603 N WEST STREET,,Carroll,514010000,Carroll,IA,7,,,,42.06702,-94.8718,GPS,No further action,1990-10-02,2005-07-08,No,No,No,Diesel,0.0,Gallons,Gasoline,0.0,Gallons,,,,,,,,,,,,,,,,Other,,,,,,,Yes,,Unknown
8480,,7LTI74,No,A-1 LOCKSMITH,914 CHURCH STREET,,Ottumwa,525010000,Wapello,IA,7,,,,41.00547,-92.4236,Other,No further action,1990-01-05,1999-08-09,No,No,No,Gasoline,0.0,Gallons,,,,,,,,,,,,,Unknown,Unknown,,,,,At tank removal,,,,,,,Yes,,Unknown
16532,,7LTM63,No,RICHARD CLARK RESIDENCE,3105 Rake Ave,,Forest City,504360000,Hancock,IA,7,,,,43.21361,-93.63588,GPS,,1990-05-01,,No,No,No,Gasoline,0.0,Gallons,,,,,,,,,,,,,Unknown,Unknown,,,,,Other,,,,,,,Yes,,Unknown
6127,,7LTO58,No,MERCYONE WATERLOO MEDICAL CENTER,3421 W 9TH ST,,Waterloo,50702,Black Hawk,IA,7,,,,42.46112,-92.34523,GPS,,1990-07-02,,No,No,No,Fuel Oil,0.0,Gallons,,,,,,,,,,,,,,,,,,,At tank removal,Over-excavation:Thru Over-excavation,,,,,,Yes,,Unknown
1758,,8LTJ58,No,IOWA 80 TRUCKSTOP INC,755 W IOWA 80 RD,,Walcott,52773,Scott,IA,7,,,,41.61786,-90.78183,GPS,No further action,1990-10-12,2013-07-13,No,No,No,Diesel,,Gallons,Gasoline,,Gallons,,,,,,,,,,Unknown,Unknown,,,,,Other,,,,,,,Yes,,Unknown
17862,,9LTL64,No,SHENANDOAH SELF-STORAGE,655 W Valley Ave,607 W VALLEY,Shenandoah,51601-,Page,IA,7,,,,40.76793,-95.37335,GPS,No further action,2004-08-23,2007-08-28,No,No,No,Waste Oil,,Gallons,Gasoline,,Gallons,Diesel,,Gallons,,,,,,,,,,,Tank,Tank corrosion,Other,,,,,,,Yes,,Unknown
9767,,9LTM12,No,KWIK STAR #629,905 S SHORT ST,,Decorah,52101,Winneshiek,IA,7,,,,43.29183,-91.79602,GPS,,2003-12-08,,No,No,No,Gasoline,,Gallons,,,,,,,,,,,,,Unknown,Unknown,,,,,Other,,,,,,,Yes,,Unknown
477,,9LTI92,No,FORMER FARMSTEAD,709 CROW CREEK ROAD,,Bettendorf,52722-,Scott,IA,7,,,,41.56694,-90.52067,GPS,No further action,2000-06-05,2000-12-21,No,No,No,Diesel,,Gallons,Gasoline,,Gallons,,,,,,,,,,,,,,,,Other,,,,,,,Yes,,Unknown
6760,,8LTP93,No,KRUEGER AMOCO #3,6300 HICKMAN,,Des Moines,503220000,Polk,IA,7,,,,41.6147,-93.70405,GPS,No further action,,2004-02-09,No,No,No,Gasoline,,Gallons,,,,,,,,,,,,,Unknown,Unknown,,,,,At tank removal,,,,,,,Yes,,Unknown
2705,,8LTX09,No,BALL MINI MART,415 L AVE,,Nevada,502010000,Story,IA,7,,,,42.02287,-93.45454,Map interpolation,,1993-09-16,,No,No,No,Waste Oil,,Gallons,Gasoline,,Gallons,Diesel,,Gallons,,,,,,,,,Unknown,Unknown,,,Other,,,,,,,Yes,,Unknown
17913,,9LTM24,No,SCHREIBER PROPERTY,3705 170TH STREET,,Goose Lake,52750-,Clinton,IA,7,,,,41.93203,-90.3732,Other,,2005-08-01,,No,No,No,Diesel,,Gallons,Gasoline,,Gallons,,,,,,,,,,Unknown,Unknown,,,,,Other,,,,,,,Yes,,Unknown
3364,,8LTH49,No,COASTAL MART #1046,215 K AVE,,Vinton,523490000,Benton,IA,7,,,,42.1691,-92.03771,GPS,No further action,1990-10-22,2006-10-14,No,No,No,Gasoline,,Gallons,,,,,,,,,,,,,Unknown,Unknown,,,,,Other,,,,,,,Yes,,Unknown
4771,,7LTP67,No,VILLAGE PETRO STOP,2501 W 4TH,,Sioux City,51103-0000,Woodbury,IA,7,,,,42.50003,-96.44164,Map interpolation,No further action,1990-07-26,2000-01-06,No,No,No,Gasoline,0.0,Gallons,,,,,,,,,,,,,,,,,,,Other,,,,,,,Yes,,Unknown
4077,,8LTT04,No,US FOODS INC,3550 2ND ST,,Coralville,52241,Johnson,IA,7,,,,41.70084,-91.63011,GPS,No further action,,1993-05-17,No,No,No,Waste Oil,,Gallons,,,,,,,,,,,,,Unknown,Unknown,,,,,At tank removal,Over-excavation:Thru Over-excavation,1992-09-15,,,,,Yes,,Unknown
242,,9LTB44,No,MARION LIBRARY SITE,500 BLOCK OF 11TH ST,,Marion,523020000,Linn,IA,7,,,,42.03205,-91.59868,GPS,,1995-03-24,,No,No,No,Gasoline,,Gallons,,,,,,,,,,,,,Unknown,Unknown,,,,,At tank removal,Over-excavation:Thru Over-excavation,1995-03-15,,,,,Yes,,Unknown
4749,,7LTJ28,No,VULCAN MATERIALS,C Ave,,Montour,501730000,Tama,IA,7,,,,42.01804,-92.72462,GPS,,1989-12-08,,No,No,No,Gasoline,0.0,Gallons,,,,,,,,,,,,,Tank,Tank corrosion,,,,,At tank removal,Over-excavation:Thru Over-excavation,1990-04-15,,,,,Yes,,Unknown
2492,,7LTW06,No,65 ONE STOP,701 EAST GILMAN,,Sheffield,504750000,Franklin,IA,7,,,,42.89354,-93.20343,GPS,,1990-09-26,,No,No,No,Gasoline,0.0,Gallons,,,,,,,,,,,,,,,,,,,Other,,,,,,,Yes,,Unknown
8652,,7LTQ98,No,QUIKTRIP #503,123 W BENTON,,Iowa City,522400000,Johnson,IA,7,,,,41.64995,-91.54063,Other,No further action,1990-08-14,2001-06-19,No,No,No,Gasoline,0.0,Gallons,,,,,,,,,,,,,Unknown,Unknown,,,,,Other,,,,,,,Yes,,Unknown
7169,,7LTQ48,No,FREDERICKSBURG FARMERS COOP,110 N. Jefferson,,Fredericksburg,50630,Winneshiek,IA,7,,,,42.96654,-92.20312,Map interpolation,,1990-08-08,,No,No,No,Gasoline,0.0,Gallons,,,,,,,,,,,,,,,,,,,Other,Over-excavation:Thru Over-excavation,1991-03-15,,,,,Yes,,Unknown
13545,,8LTO44,No,RYAN MINI MART,500 ADAMS ST,,Ryan,52330,Delaware,IA,7,,,,42.35025,-91.48072,GPS,No further action,1991-06-13,1999-11-16,No,No,No,Gasoline,,Gallons,,,,,,,,,,,,,Unknown,Unknown,,,,,Other,,,,,,,Yes,,Unknown
3108,,7LTL68,No,WEBSTER CO MAINT BLDG,814 Margaret,,Callender,505230000,Webster,IA,7,,,,42.36426,-94.29442,GPS,No further action,1990-04-22,2001-04-27,No,No,No,Diesel,0.0,Gallons,Gasoline,0.0,Gallons,,,,,,,,,,,,Unknown,Unknown,,,At tank removal,,,,,,,Yes,,Unknown
16371,,7LTP23,No,BURLINGTON NORTHERN RAILYARD,376 Lincoln Ave,,Pacific Junction,515610000,Mills,IA,7,,,,41.01608,-95.80118,GPS,Active: general,1990-07-23,,No,No,No,Gasoline,0.0,Gallons,,,,,,,,,,,,,Unknown,Unknown,,,,,At tank removal,,,,,,,Yes,,Unknown
9920,,9LTJ50,No,MEREDITH TRANSITIONAL SCHOOL,4827 MADISON AVE,,Des Moines,503100000,Polk,IA,7,,,,41.63577,-93.68367,GPS,No further action,2001-02-16,2001-12-10,No,No,No,Fuel Oil,,Gallons,,,,,,,,,,,,,Tank,Tank corrosion,,,,,Other,,,,,,,Yes,,Unknown
7173,,8LTK44,No,BOLTON'S,200 W BREMER,,Waverly,506770000,Bremer,IA,7,,,,42.72596,-92.47342,GPS,No further action,1990-12-07,1999-05-19,No,No,No,Gasoline,,Gallons,,,,,,,,,,,,,Unknown,Unknown,,,,,At tank removal,,,,,,,Yes,,Unknown
2812,,8LTG94,No,KWIK SHOP #576,3024 W CENTRAL PARK,,Davenport,528040000,Scott,IA,7,,,,41.54566,-90.62002,Other,No further action,1990-11-02,1999-04-06,No,No,No,Gasoline,,Gallons,,,,,,,,,,,,,Unknown,Unknown,,,,,Other,,,,,,,Yes,,Unknown
16108,,9LTG74,No,MAPLETON GRAIN CO,111 N. FRONT ST,,Mapleton,510340000,Monona,IA,7,,,,42.16731,-95.79398,GPS,No further action,1998-06-17,2021-03-05,No,No,No,Diesel,0.0,Gallons,Gasoline,0.0,Gallons,,,,,,,,,,,,,,,,Other,,,,,,,Yes,,Unknown
5183,,9LTK02,No,FORMER HOLIDAY STORE #48,1923 FIFTH AVENUE S,,Fort Dodge,505010000,Webster,IA,7,,,,42.50082,-94.17128,GPS,No further action,2001-11-05,2021-05-20,No,No,No,Gasoline,,Gallons,,,,,,,,,,,,,Unknown,Unknown,,,,,Other,Groundwater Treatment: Other,2008-05-15,,,,,Yes,,Unknown
10573,,8LTL49,No,THE COUNTRY STORE,3182 PLEASANT ST,,Viola,523500000,Linn,IA,7,,,,42.09174,-91.38477,GPS,Active: general,1991-02-25,,No,No,No,Gasoline,,Gallons,,,,,,,,,,,,,Unknown,Unknown,,,,,Other,Groundwater Treatment: Other,2022-06-01,,,,,Yes,,Unknown
10354,,9LTJ57,No,BIG 10 MART #13,2100 JFK RD,,Dubuque,52001,Dubuque,IA,7,,,,42.50837,-90.71977,GPS,No further action,2001-03-29,2002-11-27,No,No,No,Gasoline,,Gallons,,,,,,,,,,,,,Piping,Piping failure,,,,,Other,,,,,,,Yes,,Unknown
1855,,8LTM41,No,FAUST GARAGE & GROCERY,2156 5th St,,Delaware,520360000,Delaware,IA,7,,,,42.4756,-91.34498,GPS,No further action,1991-03-29,2017-11-20,No,No,No,Gasoline,,Gallons,,,,,,,,,,,,,,,,,,,Other,Over-excavation:Land Application,2014-10-15,,,,,Yes,,Unknown
16341,,7LTI14,No,FIVE POINTS,1701 W LOCUST,,Davenport,527280000,Scott,IA,7,,,,41.53807,-90.6015,Other,No further action,1989-10-10,2001-05-02,No,No,No,Diesel,0.0,Gallons,Gasoline,0.0,Gallons,,,,,,,,,,,,,,,,At tank removal,,,,,,,Yes,,Unknown
2358,,8LTS66,No,NEW COOPERATIVE - LACONA,254 W MAIN ST,,Lacona,50139,Warren,IA,7,,,,41.18932,-93.38726,Geocoded address,No further action,1988-11-22,2016-08-02,No,No,No,Diesel,,Gallons,Gasoline,,Gallons,,,,,,,,,,Unknown,Unknown,,,,,Other,,,,,,,Yes,,Unknown
4532,,8LTL56,No,HOTH HILL,2095 E. HWY 30,,Tama,523390000,Tama,IA,7,,,,41.96441,-92.55292,GPS,No further action,1991-02-28,2003-08-08,No,No,No,Kerosene,,Gallons,Gasoline,,Gallons,Diesel,,Gallons,,,,,,,Unknown,Unknown,,,,,Other,,,,,,,Yes,,Unknown
11771,,8LTD14,No,BP TO GO #5,975 ROBINS RD,,Hiawatha,52233,Linn,IA,7,,,,42.04718,-91.67251,GPS,Active: general,1990-10-10,,No,No,No,Gasoline,0.0,Gallons,,,,,,,,,,,,,Unknown,Unknown,,,,,Other,,,,,,,Yes,,Unknown
3036,,7LTJ03,No,DM METRO WASTEWATER RECL. AUTHORITY,3000 VANDALIA RD,,Des Moines,503171346,Polk,IA,7,,,,41.57231,-93.55766,Map interpolation,,1990-01-17,,No,No,No,Gasoline,0.0,Gallons,,,,,,,,,,,,,,,,,,,At tank removal,,,,,,,Yes,,Unknown
134,,8LTU55,No,FORMER AMOCO STATION,625/627 1ST AVE SE,,Cedar Rapids,524010000,Linn,IA,7,,,,41.9816,-91.66304,GPS,No further action,1992-09-14,1995-01-05,No,No,No,Gasoline,,Gallons,,,,,,,,,,,,,Unknown,Unknown,,,,,At tank removal,,,,,,,Yes,,Unknown
10476,,8LTK25,No,KENS CONOCO,301 E FRANKLIN,,Bloomfield,525370000,Davis,IA,7,,,,40.75074,-92.41208,Other,No further action,1990-10-12,1997-11-19,No,No,No,Diesel,,Gallons,Gasoline,,Gallons,,,,,,,,,,,,Unknown,Unknown,,,Other,,,,,,,Yes,,Unknown
498,,9LTJ51,No,FORMER JOHN DEERE IMPLEMENT,1917 SIXTH AVENUE,,Grinnell,50112-,Poweshiek,IA,7,,,,41.74733,-92.7072,GPS,No further action,2001-02-27,2001-05-03,No,No,No,Waste Oil,,Gallons,Diesel,,Gallons,,,,,,,,,,,,,,,,Other,,,,,,,Yes,,Unknown
9900,,9LTP14,No,MADISON ELEMENTARY SCHOOL,806 E HOFFMAN ST,,Des Moines,503160000,Polk,IA,7,,,,41.63244,-93.60754,Map interpolation,No further action,2010-06-15,2011-11-10,No,No,No,Fuel Oil,0.0,Gallons,Diesel,0.0,Gallons,,,,,,,,,,Tank,Tank corrosion,,,,,Other,,,,,,,Yes,,Unknown
88,,8LTP02,No,BILL NEGUS PROPERTY,107 HACKER STREET,,Buffalo,527580000,Scott,IA,7,,,,41.45568,-90.7222,Other,No further action,1991-06-18,2001-11-06,No,No,No,Fuel Oil,,Gallons,,,,,,,,,,,,,Unknown,Unknown,,,,,At tank removal,,,,,,,Yes,,Unknown
1646,,9LTH17,No,CONSOLIDATED NUTRITION,1339 3rd St,,Harlan,515370000,Shelby,IA,7,,,,41.65559,-95.31391,GPS,No further action,1998-12-14,2003-09-02,No,No,No,Gasoline,0.0,Gallons,,,,,,,,,,,,,,,,,,,At tank removal,,,,,,,Yes,,Unknown
9544,,7LTM28,No,"SPREITZER, INC",3145 16TH AVE SW PO BOX 1288,,Cedar Rapids,524060000,Linn,IA,7,,,,41.96302,-91.71225,GPS,,,,No,No,No,Diesel,0.0,Gallons,Gasoline,0.0,Gallons,,,,,,,,,,,,,,,,At tank removal,,,,,,,Yes,,Unknown
8450,,7LTM03,No,MOE'S MART #7,717 E ERIE ST,,Missouri Valley,51555-1723,Harrison,IA,7,,,,41.55661,-95.8855,GPS,No further action,1990-05-01,1999-09-28,No,No,No,Gasoline,0.0,Gallons,,,,,,,,,,,,,Unknown,Unknown,,,,,Other,,,,,,,Yes,,Unknown
8439,,7LTN23,No,KUM & GO #609,370th St,,Emmetsburg,505360000,Palo Alto,IA,7,,,,43.1117,-94.66709,GPS,No further action,1990-05-18,2007-07-20,No,No,No,Unknown,0.0,Gallons,,,,,,,,,,,,,,,,,,,Other,Over-excavation:Land Application,2002-09-15,,,,,Yes,,Unknown
1278,,7LTG54,No,MIDWEST BISCUIT COMPANY,3000 MT PLEASANT ST,,Burlington,526010000,Des Moines,IA,7,,,,40.82399,-91.13089,Other,,1989-10-26,,No,No,No,Gasoline,0.0,Gallons,,,,,,,,,,,,,,,,,,,At tank removal,,,,,,,Yes,,Unknown
4271,,7LTN96,No,IDM MARINE,116 E MILWAUKEE,,Storm Lake,505880000,Buena Vista,IA,7,,,,42.64738,-95.19982,GPS,No further action,1990-06-14,2010-11-18,Yes,No,No,Waste Oil,0.0,Gallons,Gasoline,0.0,Gallons,Diesel,0.0,Gallons,,,,,,,,,Unknown,Unknown,,,Other,,,,,,,Yes,,Unknown
8462,,9LTR23,No,PRONTO MARKET,230 WATERLOO RD,,Hudson,50643,Black Hawk,IA,7,,,,42.40836,-92.4525,GPS,,2015-12-21,,No,No,No,Gasoline,0.0,Gallons,,,,,,,,,,,,,Piping,Piping failure,,,,,Other,,,,,,,Yes,,Unknown
6498,,8LTJ39,No,BEEMER OIL CO,808 POLLOCK BLVD,,Bedford,50833,Taylor,IA,7,,,,40.6763,-94.72525,GPS,No further action,1990-12-20,2001-12-05,No,No,No,Other Petroleum,,Gallons,Gasoline,,Gallons,Diesel,,Gallons,,,,,,,,,Unknown,Unknown,,,Other,,,,,,,Yes,,Unknown
6704,,8LTW72,No,AMOCO OIL SS #2090,536 35TH,,Des Moines,503120000,Polk,IA,7,,,,41.58609,-93.66431,GPS,No further action,1991-02-18,1998-11-18,No,No,No,Waste Oil,,Gallons,Gasoline,,Gallons,,,,,,,,,,,,Unknown,Unknown,,,Other,,,,,,,Yes,,Unknown
10570,,8LTQ41,No,BENTON CO CONSERVATION BOARD,2101 57th Street Trl,,Vinton,523490000,Benton,IA,7,,,,42.19441,-92.08211,GPS,,1991-10-02,,No,No,No,Diesel,,Gallons,Gasoline,,Gallons,,,,,,,,,,,,Unknown,Unknown,,,At tank removal,Over-excavation:Thru Over-excavation,1993-07-15,,,,,Yes,,Unknown
2069,,7LTG68,No,WATER TREATMENT PLANT,401 ARIZONA ST,,Glidden,514430000,Carroll,IA,7,,,,42.05929,-94.73418,GPS,,1989-08-30,,No,No,No,Diesel,0.0,Gallons,,,,,,,,,,,,,,,,,,,Other,Over-excavation:Thru Over-excavation,,,,,,Yes,,Unknown
8171,,9LTI30,No,SOUTHWEST DISTRIBUTING,Lucas St,,Creston,508010000,Union,IA,7,,,,41.05436,-94.3457,GPS,No further action,1999-11-05,2000-08-01,No,No,No,Gasoline,,Gallons,,,,,,,,,,,,,,,,,,,Other,,,,,,,Yes,,Unknown
5709,,7LTW40,No,FBH GAS & GOODS,113 RIVERVIEW DR,,Waucoma,52171,Fayette,IA,7,,,,43.05629,-92.03593,GPS,,1990-09-24,,No,No,No,Diesel,0.0,Gallons,Gasoline,0.0,Gallons,,,,,,,,,,Unknown,Unknown,,,,,Other,,,,,,,Yes,,Unknown
16067,,7LTM84,No,REESE AUTO SERVICE,7215 UNIVERSITY AVE,,Windsor Heights,503110000,Polk,IA,7,,,,41.60078,-93.71706,GPS,No further action,1990-05-17,1999-01-08,No,No,No,Waste Oil,0.0,Gallons,,,,,,,,,,,,,,,,,,,At tank removal,,,,,,,Yes,,Unknown
6826,,7LTV63,No,CASEY'S GENERAL STORE 92,303 E MAIN ST,,Panora,50216-1064,Guthrie,IA,7,,,,41.69192,-94.36079,GPS,No further action,1990-09-17,1999-12-30,No,No,No,Gasoline,0.0,Gallons,,,,,,,,,,,,,,,,,,,Other,,,,,,,Yes,,Unknown
17600,,9LTO34,No,CASEYS GENERAL STORE 3604,121 N FLOYD AVE,,Hinton,51024,Plymouth,IA,7,,,,42.627,-96.29272,Other,Active: general,2009-06-17,,No,No,No,Gasoline,0.0,Gallons,,,,,,,,,,,,,Piping,Other,,,,,Other,Groundwater Treatment: Other,2012-11-07,,,,,Yes,,Unknown
17462,,9LTG79,No,PRINCIPAL MUTUAL LIFE,575 7TH ST,,Des Moines,503921350,Polk,IA,7,,,,41.58878,-93.62645,GPS,No further action,1998-09-23,1999-05-19,No,No,No,Diesel,0.0,Gallons,,,,,,,,,,,,,,,,,,,Other,,,,,,,Yes,,Unknown
7978,,9LTB82,No,U S WEST,121 N OLIVE,,Maquoketa,52060,Jackson,IA,7,,,,42.07081,-90.66383,GPS,,1995-06-14,,No,No,No,Diesel,,Gallons,,,,,,,,,,,,,Unknown,Unknown,,,,,At tank removal,,,,,,,Yes,,Unknown
2692,,8LTR99,No,BLACK HAWK COUNTY SHOP,Dunkerton Rd,,Dunkerton,506260000,Black Hawk,IA,7,,,,42.57024,-92.16855,GPS,No further action,1992-01-29,2001-12-21,No,No,No,Gasoline,,Gallons,,,,,,,,,,,,,Unknown,Unknown,,,,,At tank removal,,,,,,,Yes,,Unknown
10471,,8LTR81,No,CITY OF BETTENDORF - PUBLIC WORKS,4403 DEVILS GLEN ROAD,,Bettendorf,527220000,Scott,IA,7,,,,41.56599,-90.4802,GPS,No further action,1992-01-13,1992-07-30,No,No,No,Waste Oil,,Gallons,,,,,,,,,,,,,Unknown,Unknown,,,,,Other,,,,,,,Yes,,Unknown
9737,,7LTA48,No,PAYLESS CASHWAYS,2630 WILEY RD,,Cedar Rapids,524040000,Linn,IA,7,,,,41.95002,-91.72469,GPS,,1988-07-28,,No,No,No,Gasoline,0.0,Gallons,,,,,,,,,,,,,,,,,,,Other,Over-excavation:Thru Over-excavation,2007-11-15,,,,,Yes,,Unknown
4637,,7LTJ67,No,JUICE 'N' JUNK,1205 W 19TH STREET S,,Newton,502080000,Jasper,IA,7,,,,41.68779,-93.07866,GPS,No further action,1990-01-01,2000-07-13,Yes,No,No,Diesel,0.0,Gallons,Gasoline,0.0,Gallons,,,,,,,,,,,,,,,,At tank removal,,,,,,,Yes,,Unknown
2059,,7LTN55,No,NORTH SCOTT COMM SCHOOL DIST,151 EAST IOWA ST,,Eldridge,527480000,Scott,IA,7,,,,41.65234,-90.58108,GPS,,1990-06-08,,No,No,No,Diesel,0.0,Gallons,Gasoline,0.0,Gallons,,,,,,,,,,,,Unknown,Unknown,,,At tank removal,,,,,,,Yes,,Unknown
3527,,7LTT42,No,JENSEN SERVICE,503 MAIN ST,,Minden,515530000,Pottawattamie,IA,7,,,,41.46802,-95.53988,GPS,No further action,1990-09-07,2014-08-14,No,No,No,Unknown,0.0,Gallons,,,,,,,,,,,,,,,,,,,Other,,,,,,,Yes,,Unknown
352,,9LTE26,No,J'S AUTO & BODY SHOP,945 E MAIN ST,,Manchester,520570000,Delaware,IA,7,,,,42.48379,-91.44238,Map interpolation,No further action,1996-11-27,2011-09-22,No,No,No,Unknown,,Gallons,,,,,,,,,,,,,Unknown,Unknown,,,,,Other,,,,,,,Yes,,Unknown
349,,9LTE20,No,WHO TRANSMITTER SITE,5100 NE 102ND ST,,Mitchellville,501690000,Polk,IA,7,,,,41.65285,-93.34894,GPS,No further action,1996-11-14,1997-02-11,No,No,No,Fuel Oil,,Gallons,,,,,,,,,,,,,Unknown,Unknown,,,,,Other,,,,,,,Yes,,Unknown
15298,,9LTG63,No,DIRKS OIL CO,311 WEST MAIN,,Wyoming,523620000,Jones,IA,7,,,,42.05878,-91.01124,GPS,Active: general,1998-05-15,,No,No,No,Gasoline,0.0,Gallons,,,,,,,,,,,,,,,,,,,Other,,,,,,,Yes,,Unknown
9698,,8LTN33,No,SUPER 7 FOOD SHOP,103 RIVER AVE S,,Belmond,50421,Wright,IA,7,,,,42.8457,-93.61659,GPS,No further action,1990-10-22,2004-06-03,No,No,No,Gasoline,,Gallons,,,,,,,,,,,,,Unknown,Unknown,,,,,At tank removal,,,,,,,Yes,,Unknown
18131,,9LTO79,No,FORMER TEXACO,5230 BRADY STREET,,Davenport,52806,Scott,IA,7,,,,41.57324,-90.56936,Geocoded address,No further action,2010-05-18,2012-08-23,No,No,No,Unknown,0.0,Gallons,,,,,,,,,,,,,Unknown,Unknown,,,,,Other,Over-excavation:Sanitary Landfill,,,,,,Yes,,Unknown
2953,,7LTV12,No,THE HUT DISCOUNT STORE,429 VETERANS MEMORIAL HIGHWAY,,Council Bluffs,51501-8416,Pottawattamie,IA,7,,,,41.21913,-95.85173,GPS,No further action,1990-09-18,2023-02-14,No,No,No,Gasoline,0.0,Gallons,,,,,,,,,,,,,,,,,,,Other,,,,,,,Yes,,Unknown
4709,,7LTD80,No,SPEEDEE MART 1512,3624 9TH AVE,,Council Bluffs,51501,Pottawattamie,IA,7,,,,41.25398,-95.90583,GPS,No further action,1989-02-20,2000-05-04,No,No,No,Gasoline,0.0,Gallons,,,,,,,,,,,,,Unknown,Unknown,,,,,Other,,,,,,,Yes,,Unknown
16031,,8LTB91,No,JOHNSON BROTHERS,503 BURLINGTON,,Essex,516380000,Page,IA,7,,,,40.83437,-95.30705,GPS,,1990-10-19,,No,No,No,Gasoline,0.0,Gallons,,,,,,,,,,,,,,,,,,,At tank removal,Over-excavation:Thru Over-excavation,,,,,,Yes,,Unknown
8139,,7LTO54,No,BENNETT SERVICE,133 2nd St,,Bennett,527210000,Cedar,IA,7,,,,41.73907,-90.97362,Other,,1990-06-29,,No,No,No,Waste Oil,0.0,Gallons,Gasoline,0.0,Gallons,Diesel,0.0,Gallons,,,,,,,,,,,,,At tank removal,,,,,,,Yes,,Unknown
10170,,8LTE50,No,SUNDES INC,721 CENTRAL AVE,,Estherville,513340000,Emmet,IA,7,,,,43.40224,-94.83443,Other,No further action,1990-10-29,1999-08-04,No,No,No,Diesel,0.0,Gallons,Gasoline,0.0,Gallons,,,,,,,,,,,,,,,,Other,,,,,,,Yes,,Unknown
6767,,9LTI84,No,H & A MINI MART,145 UNIVERSITY AVE,,Des Moines,50314,Polk,IA,7,,,,41.60062,-93.61903,GPS,No further action,2000-02-21,2001-07-23,Yes,No,No,Gasoline,,Gallons,,,,,,,,,,,,,,,,,,,Other,,,,,,,Yes,,Unknown
15314,,9LTN57,No,GRINNELL REGIONAL AIRPORT,1607 WEST ST S,,Grinnell,50112-8105,Poweshiek,IA,7,,,,41.70601,-92.73181,Geocoded address,No further action,2008-02-24,2010-07-09,No,No,No,Other Petroleum,2600.0,Gallons,,,,,,,,,,,,,Unknown,Unknown,,,,,Other,,,,,,,Yes,,Unknown
6935,,8LTG42,No,WHITEWAY 66 SERVICE,1211 OTLEY AVE,,Perry,50220,Dallas,IA,7,,,,41.83703,-94.10439,Geocoded address,No further action,1990-10-26,1997-03-27,No,No,No,Waste Oil,,Gallons,Gasoline,,Gallons,Diesel,,Gallons,,,,,,,,,Unknown,Unknown,,,At tank removal,,,,,,,Yes,,Unknown
2608,,8LTZ68,No,WRIGHT COUNTY SHED,701 NE 2ND ST,,Eagle Grove,507010000,Wright,IA,7,,,,42.66671,-93.89333,GPS,,1994-07-26,,No,No,No,Diesel,,Gallons,,,,,,,,,,,,,Unknown,Unknown,,,,,Other,,,,,,,Yes,,Unknown
2480,,8LTB63,No,6000 GRAND LLC,6000 GRAND AVENUE,,Des Moines,503120000,Polk,IA,7,,,,41.58209,-93.69872,GPS,,1990-10-12,,No,No,No,Diesel,0.0,Gallons,,,,,,,,,,,,,,,,,,,Other,,,,,,,Yes,,Unknown
347,,9LTE15,No,FORMER FORD GARAGE,800 E 1ST ST,,Sumner,506740000,Bremer,IA,7,,,,42.84761,-92.08627,GPS,No further action,1996-10-25,1997-10-30,No,No,No,Gasoline,,Gallons,,,,,,,,,,,,,Unknown,Unknown,,,,,Other,,,,,,,Yes,,Unknown
155,,8LTV75,No,HUBINGER-ROQUETTE OF AMERICA,5TH AND CEDAR STREETS,,Keokuk,526320000,Lee,IA,7,,,,40.38989,-91.39257,GPS,No further action,1993-03-09,2022-04-27,No,No,No,Unknown,,Gallons,Gasoline,,Gallons,,,,,,,,,,Unknown,Unknown,,,,,Other,Groundwater Treatment: Other,2003-11-15,,,,,Yes,,Unknown
8148,,9LTL85,No,CASEY'S GENERAL STORE 2498,710 HIGHWAY 61 N,,Wapello,52653,Louisa,IA,7,,,,41.18576,-91.19556,Other,No further action,,2010-08-27,No,No,No,Gasoline,,Gallons,,,,,,,,,,,,,Unknown,Unknown,,,,,Other,Groundwater Treatment: Air Sparging,2007-05-15,,,,,Yes,,Unknown
1363,,8LTO63,No,HOBSON KITCHEN,222 SO FLOYD,,Sioux City,511050000,Woodbury,IA,7,,,,42.48922,-96.39294,Map interpolation,No further action,1991-06-26,2003-01-07,No,No,No,Gasoline,,Gallons,,,,,,,,,,,,,Unknown,Unknown,,,,,At tank removal,,,,,,,Yes,,Unknown
3473,,8LTF19,No,JOHNSTON COMMUNITY SCHOOLS,6501 NW 62ND AVENUE,,Johnston,501310000,Polk,IA,7,,,,41.67493,-93.70685,GPS,No further action,1990-10-23,1998-09-24,No,No,No,Gasoline,,Gallons,,,,,,,,,,,,,,,,,,,Other,,,,,,,Yes,,Unknown
8093,,7LTH61,No,WALDORF CORPORATION,2301 SOUTH 21ST STREET,,Clinton,527320000,Clinton,IA,7,,,,41.81845,-90.23676,Other,,1989-11-16,,No,No,No,Other Petroleum,0.0,Gallons,,,,,,,,,,,,,Unknown,Unknown,,,,,At tank removal,,,,,,,Yes,,Unknown
6706,,7LTA03,No,FORMER AMOCO #5012,3 W STATE,,Marshalltown,501580000,Marshall,IA,7,,,,42.05058,-92.91321,GPS,No further action,1988-07-01,2014-08-11,No,No,No,Gasoline,0.0,Gallons,,,,,,,,,,,,,,,,,,,Other,Soil Venting:Active,2009-07-15,,,,,Yes,,Unknown
3240,,7LTS11,No,FORMER ALDO GAS (HYVEE),923 N JOHN WAYNE DRIVE,,Winterset,502730000,Madison,IA,7,,,,41.34194,-94.01305,GPS,Active: general,1990-08-22,,No,No,No,Diesel,0.0,Gallons,Gasoline,0.0,Gallons,,,,,,,,,,Unknown,Unknown,,,,,Other,Groundwater Treatment: Other,,,,,,Yes,,Unknown
11095,,8LTL72,No,ALLAMAKEE COUNTY SHED,2938 State Highway 26,,New Albin,521600000,Allamakee,IA,7,,,,43.49246,-91.29795,GPS,,1991-03-05,,No,No,No,Diesel,,Gallons,,,,,,,,,,,,,Unknown,Unknown,,,,,At tank removal,,,,,,,Yes,,Unknown
224,,9LTA31,No,SCOTT TUSLER PROPERTY,703 CHASE,,Osage,504610000,Mitchell,IA,7,,,,43.28499,-92.81096,GPS,,1994-10-04,,No,No,No,Gasoline,,Gallons,,,,,,,,,,,,,Unknown,Unknown,,,,,Other,Over-excavation:Land Application,1998-11-24,,,,,Yes,,Unknown
9903,,9LTM22,No,LONGFELLOW ELEMENTARY SCHOOL,1101 E 6TH AVE,,Des Moines,503160000,Polk,IA,7,,,,41.59935,-93.61182,Other,No further action,2005-07-06,2006-02-08,No,No,No,Fuel Oil,,Gallons,,,,,,,,,,,,,Piping,Piping failure,,,,,Other,Over-excavation:Thru Over-excavation,2005-10-15,,,,,Yes,,Unknown
2659,,7LTF90,No,LOUISA COUNTY MAINT SHOP,240 Legion Rd,,Columbus Junction,526530000,Louisa,IA,7,,,,41.28094,-91.35915,GPS,No further action,1989-09-26,2008-08-28,No,No,No,Diesel,0.0,Gallons,Gasoline,0.0,Gallons,,,,,,,,,,,,,,,,Other,,,,,,,Yes,,Unknown
6846,,7LTR70,No,CASEY'S GENERAL STORE 1167,714 S MAIN ST,,Holstein,51025,Ida,IA,7,,,,42.4805,-95.54455,Other,No further action,1990-08-16,1998-07-14,No,No,No,Gasoline,0.0,Gallons,,,,,,,,,,,,,Unknown,Unknown,,,,,Other,,,,,,,Yes,,Unknown
537,,9LTK69,No,FORMER GAS STATION,300 THIRD STREET,,Sioux City,51102-,Woodbury,IA,7,,,,42.49294,-96.40766,Map interpolation,,2002-12-23,,No,No,No,Gasoline,,Gallons,,,,,,,,,,,,,Tank,Tank corrosion,,,,,Other,,,,,,,Yes,,Unknown
2442,,8LTV70,No,KERR MCGEE BULK #82,100 FIRST AVENUE NW,,Cedar Rapids,524050000,Linn,IA,7,,,,41.97686,-91.67381,GPS,No further action,1993-03-11,1998-11-06,No,No,No,Gasoline,,Gallons,,,,,,,,,,,,,Unknown,Unknown,,,,,Other,,,,,,,Yes,,Unknown
5642,,8LTO72,No,CONSOLIDATED PACKAGING CORP,1510 18TH ST,,Fort Madison,526270000,Lee,IA,7,,,,40.62363,-91.33036,GPS,No further action,1991-06-18,1994-03-11,No,No,No,Diesel,,Gallons,Gasoline,,Gallons,,,,,,,,,,Unknown,Unknown,,,,,At tank removal,Over-excavation:Thru Over-excavation,1994-02-06,,,,,Yes,,Unknown
18261,,9LTQ47,No,FORMER GAS STATION,651 MAIN STREEET,,Mediapolis,52637,Des Moines,IA,7,,,,41.00789,-91.163,Geocoded address,No further action,2013-08-28,2014-12-23,No,No,No,Diesel,0.0,Gallons,Gasoline,0.0,Gallons,,,,,,,,,,Tank,Tank corrosion,Piping,Piping failure,,,Other,,,,,,,Yes,,Unknown
3212,,8LTB54,No,YOUNGBLUT CONSTRUCTION,7139 LA PORTE ROAD,,Washburn,507060000,Black Hawk,IA,7,,,,42.41119,-92.26581,GPS,,1990-10-15,,No,No,No,Diesel,0.0,Gallons,Gasoline,0.0,Gallons,,,,,,,,,,Unknown,Unknown,,,,,At tank removal,,,,,,,Yes,,Unknown
7339,,7LTI57,No,CASEY'S GENERAL STORE #3219,106 S 4TH ST,,Forest City,50436,Winnebago,IA,7,,,,43.26319,-93.63787,Other,No further action,1989-10-13,1999-04-15,No,No,No,Gasoline,0.0,Gallons,,,,,,,,,,,,,Unknown,Unknown,,,,,Other,,,,,,,Yes,,Unknown
18135,,9LTO81,No,FORMER STANDARD SERVICE STATION,1501 5th Avenue South,,Fort Dodge,50501,Webster,IA,7,,,,42.50083,-94.17722,Map interpolation,No further action,2010-08-15,2011-03-15,No,No,No,Unknown,0.0,Gallons,,,,,,,,,,,,,Unknown,Unknown,,,,,Other,,,,,,,Yes,,Unknown
8736,,7LTV45,No,KWIK STAR #801,809 MAIN ST,,Osage,50461,Mitchell,IA,7,,,,43.2844,-92.80919,GPS,No further action,1990-09-12,2008-02-18,No,No,No,Gasoline,0.0,Gallons,,,,,,,,,,,,,,,,,,,Other,,,,,,,Yes,,Unknown
10123,,9LTT23,No,SCHORG'S AMOCO,321 HAWKEYE AVE,,Remsen,51050,Plymouth,IA,7,,,,42.80843,-95.96908,Geocoded address,No further action,2021-11-03,2023-10-26,No,No,No,Gasoline,0.0,Gallons,,,,,,,,,,,,,Unknown,Unknown,,,,,At tank removal,,,,,,,Yes,,Unknown
7693,,9LTL72,No,KWIK SHOP #520,1202 E LOCUST ST,,Carter Lake,51510,Pottawattamie,IA,7,,,,41.2852,-95.91418,GPS,Active: general,2004-09-21,,No,No,No,Gasoline,,Gallons,,,,,,,,,,,,,Unknown,Unknown,,,,,Other,,,,,,,Yes,,Unknown
4493,,7LTY67,No,NOLLEN PHILLIPS 66,2413 12TH,,Harlan,515370000,Shelby,IA,7,,,,41.64686,-95.32599,Other,,1985-03-18,,No,No,No,Gasoline,0.0,Gallons,,,,,,,,,,,,,Piping,Piping failure,,,,,Other,,,,,,,Yes,,Unknown
7573,,8LTJ36,No,DUNLAP OIL CO,601 MONTAGUE,,Dunlap,515290000,Harrison,IA,7,,,,41.85656,-95.60166,GPS,,1990-10-25,,No,No,No,Waste Oil,,Gallons,,,,,,,,,,,,,Unknown,Unknown,,,,,At tank removal,Over-excavation:Thru Over-excavation,1993-06-15,,,,,Yes,,Unknown
3839,,7LTU50,No,KWIK STAR #703,109 E DIKE RD,,Dike,50624,Grundy,IA,7,,,,42.46949,-92.62796,GPS,No further action,1990-09-12,2021-12-16,No,No,No,Gasoline,0.0,Gallons,,,,,,,,,,,,,,,,,,,Other,,,,,,,Yes,,Unknown
7697,,9LTR27,No,KWIK SHOP #532,1602 AVENUE G,,Council Bluffs,51501,Pottawattamie,IA,7,,,,41.26821,-95.86776,GPS,No further action,2016-02-09,2022-04-13,No,No,No,Gasoline,0.0,Gallons,,,,,,,,,,,,,Other,Other,,,,,Other,,,,,,,Yes,,Unknown
1593,,7LTD31,No,STAR EQUIPMENT,1401 2ND AVENUE,,Des Moines,503140000,Polk,IA,7,,,,41.60381,-93.61943,GPS,,1989-04-28,,No,No,No,Gasoline,0.0,Gallons,,,,,,,,,,,,,Unknown,Unknown,,,,,At tank removal,Over-excavation:Thru Over-excavation,,,,,,Yes,,Unknown
7976,,9LTA30,No,NWB/ROC,96 8TH ST SO,,Northwood,50459,Worth,IA,7,,,,43.44318,-93.22125,Other,,1994-08-18,,No,No,No,Fuel Oil,,Gallons,,,,,,,,,,,,,Unknown,Unknown,,,,,At tank removal,,,,,,,Yes,,Unknown
11903,,7LTD18,No,PARROTT'S PAINTING,210 E 10TH ST,,Coralville,522410000,Johnson,IA,7,,,,41.68264,-91.56145,GPS,,1989-03-07,,Yes,Yes,No,Gasoline,0.0,Gallons,,,,,,,,,,,,,Unknown,Unknown,,,,,At tank removal,,,,,,,Yes,,Unknown
397,,9LTF24,No,WALL LAKE VIEW AUBURN COMM SCHOOL,801 JACKSON,,Lake View,514500000,Sac,IA,7,,,,42.31034,-95.05662,GPS,No further action,1997-08-26,1997-11-14,No,No,No,Fuel Oil,,Gallons,,,,,,,,,,,,,Unknown,Unknown,,,,,Other,,,,,,,Yes,,Unknown
10470,,8LTM32,No,SNIDERS STORAGE CORP,6531 WEST KIMBERLY RD,,Davenport,528060000,Scott,IA,7,,,,41.58398,-90.66599,Other,,1991-03-25,,No,No,No,Gasoline,,Gallons,,,,,,,,,,,,,Unknown,Unknown,,,,,Other,,,,,,,Yes,,Unknown
81,,8LTO09,No,US POSTAL SERVICE,310 9TH AVE,,Wellman,523569998,Washington,IA,7,,,,41.46527,-91.83883,Other,No further action,1991-05-01,1999-02-16,No,No,No,Fuel Oil,,Gallons,,,,,,,,,,,,,Unknown,Unknown,,,,,At tank removal,,,,,,,Yes,,Unknown
3243,,8LTC77,No,SENECA CORPORATION,5636 NE 17TH STREET,,Des Moines,503130000,Polk,IA,7,,,,41.66335,-93.59328,GPS,No further action,1990-10-23,1999-11-29,No,No,No,Gasoline,0.0,Gallons,,,,,,,,,,,,,,,,,,,Other,,,,,,,Yes,,Unknown
2665,,7LTQ03,No,DON'S SERVICE,211 W 7TH ST,,Sanborn,51248,O'Brien,IA,7,,,,43.18592,-95.65843,GPS,,1990-07-30,,No,No,No,Diesel,0.0,Gallons,Gasoline,0.0,Gallons,,,,,,,,,,,,,,,,Other,,,,,,,Yes,,Unknown
4335,,8LTY29,No,UNION SLOUGH NAT'L WILDLIFE REFUGE,1800 360th St,,Titonka,504800000,Kossuth,IA,7,,,,43.28396,-94.10998,GPS,,1993-09-30,,No,No,No,Diesel,,Gallons,Gasoline,,Gallons,,,,,,,,,,,,Unknown,Unknown,,,At tank removal,,,,,,,Yes,,Unknown
7238,,9LTK82,No,SENFCO AUTO CENTER,9060 HICKMAN ROAD,,Des Moines,503220000,Polk,IA,7,,,,41.61415,-93.74286,GPS,No further action,2003-04-15,2008-02-05,No,No,No,Hydraulic Oil,,Gallons,Diesel,,Gallons,Waste Oil,,Gallons,,,,,,,,,Unknown,Unknown,,,Other,,,,,,,Yes,,Unknown
10646,,8LTC41,No,AG PARTNERS,10838 570TH ST,,Varina,50593,Pocahontas,IA,7,,,,42.66128,-94.89769,Geocoded address,No further action,1990-10-03,1998-10-29,No,No,No,Gasoline,0.0,Gallons,,,,,,,,,,,,,Unknown,Unknown,,,,,Other,,,,,,,Yes,,Unknown
4948,,7LTQ68,No,KUM & GO #422,731 S  RIVERSIDE DR,,Iowa City,52246,Johnson,IA,7,,,,41.65046,-91.54091,GPS,No further action,1990-08-15,2000-12-12,No,No,No,Fuel Oil,0.0,Gallons,Waste Oil,0.0,Gallons,,,,,,,,,,,,,,,,Other,,,,,,,Yes,,Unknown
1794,,7LTS12,No,BB & P FEED & GRAIN INC,1427 N John Wayne Dr,,Winterset,502730000,Madison,IA,7,,,,41.34754,-94.01399,GPS,,1990-08-22,,No,No,No,Diesel,0.0,Gallons,Gasoline,0.0,Gallons,,,,,,,,,,Unknown,Unknown,,,,,Other,,,,,,,Yes,,Unknown
18062,,9LTT38,No,CASEY'S GENERAL STORE  2640,1006 W PLEASANT ST,,Pleasantville,50225-9546,Marion,IA,7,,,,41.39287,-93.2792,Map interpolation,Active: general,2022-05-27,,No,No,No,Gasoline,0.0,Gallons,,,,,,,,,,,,,Piping,Piping failure,,,,,Other,,,,,,,Yes,,Unknown
557,,9LTL25,No,FORMER MEIERS PLAZA DX,301 W 28TH STREET,,Sioux City,51104,Woodbury,IA,7,,,,42.51894,-96.41799,Map interpolation,No further action,2003-12-10,2004-04-23,No,No,No,Diesel,,Gallons,,,,,,,,,,,,,Unknown,Unknown,,,,,Other,,,,,,,Yes,,Unknown
7918,,7LTL87,No,UNION PACIFIC RAILROAD,14TH AVENUE & 21ST STREET,,Council Bluffs,515010000,Pottawattamie,IA,7,,,,41.24907,-95.89599,GPS,,1990-05-01,,No,No,No,Diesel,0.0,Gallons,Gasoline,0.0,Gallons,,,,,,,,,,Unknown,Unknown,,,,,At tank removal,,,,,,,Yes,,Unknown
4587,,8LTH82,No,WALKERS 1 STOP,101 W MAIN,,Waukon,521720000,Allamakee,IA,7,,,,43.26945,-91.47806,GPS,No further action,1990-10-23,2003-05-07,No,No,No,Gasoline,,Gallons,,,,,,,,,,,,,Unknown,Unknown,,,,,Other,,,,,,,Yes,,Unknown
6863,,7LTQ88,No,CASEY'S GENERAL STORE,2023 INDIAN WAY,,Beacon,525340000,Mahaska,IA,7,,,,41.28467,-92.67456,GPS,No further action,1990-08-17,2012-10-12,No,No,No,Gasoline,0.0,Gallons,,,,,,,,,,,,,Unknown,Unknown,,,,,Other,,,,,,,Yes,,Unknown
3277,,7LTU91,No,SPARKY'S ONE STOP #14,4902 460TH AVE,,Mallard,50562,Palo Alto,IA,7,,,,42.9375,-94.67844,GPS,No further action,1990-09-11,2003-07-01,No,No,No,Diesel,0.0,Gallons,Gasoline,0.0,Gallons,,,,,,,,,,,,Unknown,Unknown,,,Other,,,,,,,Yes,,Unknown
7283,,7LTN79,No,AMOCO FOOD SHOP,601 S MERINO AVE,,Eddyville,52553,Wapello,IA,7,,,,41.15382,-92.62726,GPS,No further action,1990-05-14,2003-09-12,No,No,No,Kerosene,0.0,Gallons,Gasoline,0.0,Gallons,Diesel,0.0,Gallons,,,,,,,,,,,Unknown,Unknown,Other,,,,,,,Yes,,Unknown
10142,,7LTF49,No,KOCHS 66,111 W DIKE RD,,Dike,506240000,Grundy,IA,7,,,,42.46934,-92.62926,GPS,Active: general,1989-08-17,,No,No,No,Diesel,0.0,Gallons,,,,,,,,,,,,,Unknown,Unknown,,,,,Other,,,,,,,Yes,,Unknown
2634,,8LTG92,No,HIGHWAY CARRIER,3601 ADVENTURELAND AVE,,Altoona,500090000,Polk,IA,7,,,,41.65963,-93.50912,GPS,No further action,1990-10-25,1997-07-25,No,No,No,Waste Oil,,Gallons,Diesel,,Gallons,,,,,,,,,,,,Unknown,Unknown,,,Other,,,,,,,Yes,,Unknown
6499,,7LTS90,No,MORROW'S STANDARD SERVICE,223 E MAIN ST,,Lake City,51449,Calhoun,IA,7,,,,42.26692,-94.73183,Other,,1990-08-17,,No,No,No,Diesel,0.0,Gallons,Gasoline,0.0,Gallons,,,,,,,,,,,,Unknown,Unknown,,,Other,,,,,,,Yes,,Unknown
8444,,7LTK62,No,CASEY'S GENERAL STORE #3038,224 MAIN,,Cherokee,510120000,Cherokee,IA,7,,,,42.74991,-95.54753,Other,No further action,1990-03-14,1999-12-06,No,No,No,Gasoline,0.0,Gallons,,,,,,,,,,,,,,,,,,,Other,,,,,,,Yes,,Unknown
3373,,8LTF54,No,PHILLIPS 66,1710 CHATBURN AVE,,Harlan,515370000,Shelby,IA,7,,,,41.64641,-95.33436,GPS,No further action,1990-10-22,2004-08-06,No,No,No,Gasoline,,Gallons,,,,,,,,,,,,,,,,,,,Other,,,,,,,Yes,,Unknown
451,,9LTH86,No,FORMER SERVICE STATION,200 S LOCUST,,Dubuque,52004,Dubuque,IA,7,,,,42.49032,-90.66501,GPS,,1999-06-08,,No,No,No,Gasoline,,Gallons,,,,,,,,,,,,,,,,,,,Other,,,,,,,Yes,,Unknown
4180,,8LTL23,No,ARCHER COOP SERVICE STATION,273 Main St,,Archer,512310000,O'Brien,IA,7,,,,43.11531,-95.7461,GPS,No further action,1991-02-26,2021-05-26,No,No,No,Waste Oil,,Gallons,Gasoline,,Gallons,,,,,,,,,,Unknown,Unknown,,,,,Other,Over-excavation:Land Application,2008-10-06,,,,,Yes,,Unknown
7145,,7LTF66,No,VENTURA SCHOOL,7A SOUTH MAIN,,Ventura,504820000,Cerro Gordo,IA,7,,,,43.12591,-93.47642,GPS,No further action,,2013-06-11,Yes,No,No,Diesel,0.0,Gallons,Gasoline,0.0,Gallons,,,,,,,,,,,,,,,,Other,,,,,,,Yes,,Unknown
11304,,8LTX91,No,PLENDL BROS TRUCKING,31475 K64,,Kingsley,510280000,Plymouth,IA,7,,,,42.59622,-96.07493,GPS,,1994-01-05,,No,No,No,Diesel,,Gallons,Gasoline,,Gallons,,,,,,,,,,Unknown,Unknown,,,,,Other,,,,,,,Yes,,Unknown
5769,,9LTC04,No,GRANDVIEW CARE CENTER,800 5TH STREET SE,,Oelwein,506620000,Fayette,IA,7,,,,42.67094,-91.90212,GPS,,1995-07-20,,No,No,No,Fuel Oil,,Gallons,Gasoline,,Gallons,,,,,,,,,,,,Unknown,Unknown,,,Other,,,,,,,Yes,,Unknown
17900,,9LTP88,No,KUM & GO #200,4510 MORTENSEN RD,,Ames,50010,Story,IA,7,,,,42.01183,-93.67964,Other,No further action,2012-08-17,2013-01-09,No,No,No,Waste Oil,0.0,Gallons,Gasoline,0.0,Gallons,Diesel,0.0,Gallons,,,,,,,,,,,,,Other,,,,,,,Yes,,Unknown
6604,,7LTG75,No,CITY OF DYSART,713 WILSON,,Dysart,522240000,Tama,IA,7,,,,42.17202,-92.30894,GPS,,,,No,No,No,Diesel,0.0,Gallons,Gasoline,0.0,Gallons,,,,,,,,,,,,,,,,At tank removal,Over-excavation:Thru Over-excavation,1990-06-15,,,,,Yes,,Unknown
8873,,7LTW66,No,DELL OIL LTD,809 EAST 18TH STREET,,Cedar Falls,506130000,Black Hawk,IA,7,,,,42.5211,-92.437,GPS,No further action,1990-09-26,2001-01-26,No,No,No,Gasoline,0.0,Gallons,,,,,,,,,,,,,Unknown,Unknown,,,,,Other,,,,,,,Yes,,Unknown
5514,,7LTO88,No,CASEYS GENERAL STORE 3054,700 SUPERIOR ST,,Webster City,505950000,Hamilton,IA,7,,,,42.4694,-93.81565,Other,,1990-07-10,,No,No,No,Gasoline,0.0,Gallons,,,,,,,,,,,,,,,,,,,At tank removal,,,,,,,Yes,,Unknown
18442,,9LTR97,No,CITY OF MANCHESTER,304 W MAIN STREET,,Manchester,52057,Delaware,IA,7,,,,42.48381,-91.4606,Geocoded address,,2017-10-17,,No,No,No,Unknown,0.0,Gallons,,,,,,,,,,,,,Unknown,Unknown,,,,,Other,,,,,,,Yes,,Unknown
5121,,8LTY78,No,SHA MART,690 W LOCUST ST,,Dubuque,52001-4356,Dubuque,IA,7,,,,42.50871,-90.67891,GPS,No further action,1994-04-21,2017-02-20,No,No,No,Gasoline,,Gallons,,,,,,,,,,,,,Unknown,Unknown,,,,,Other,,,,,,,Yes,,Unknown
14,,7LTC75,No,FEDERAL FAMILY CU,425 1ST AVE SW,,Cedar Rapids,524050000,Linn,IA,7,,,,41.97451,-91.67797,GPS,No further action,1988-09-01,2009-09-11,No,No,No,Other Petroleum,0.0,Gallons,,,,,,,,,,,,,,,,,,,Other,,,,,,,Yes,,Unknown
6656,,7LTF57,No,WILKERSON 66,1699 RACINE AVENUE,,Mount Union,526440000,Henry,IA,7,,,,41.06,-91.39042,Other,,,,No,No,No,Gasoline,0.0,Gallons,,,,,,,,,,,,,,,,,,,At tank removal,Over-excavation:Thru Over-excavation,1989-11-15,,,,,Yes,,Unknown
7740,,8LTR82,No,AXALTA COATING SYSTEMS,803 35TH ST,,Fort Madison,52627-2011,Lee,IA,7,,,,40.62974,-91.35797,,,1992-01-22,,No,No,No,Non-Petroleum Product,,Gallons,,,,,,,,,,,,,Unknown,Unknown,,,,,At tank removal,,,,,,,Yes,,Unknown
6221,,8LTD98,No,VOGEL SERVICE,302 MAIN,,Sidney,516520000,Fremont,IA,7,,,,40.7409,-95.64658,GPS,No further action,1990-10-25,1997-05-19,No,No,No,Diesel,0.0,Gallons,Gasoline,0.0,Gallons,,,,,,,,,,,,,,,,At tank removal,,,,,,,Yes,,Unknown
8401,,9LTQ61,No,CASEY'S GENERAL STORE #3033,103 CENTRAL AVE,,Estherville,51334,Emmet,IA,7,,,,43.40212,-94.84242,Other,No further action,2013-12-18,2014-10-31,No,No,No,Gasoline,0.0,Gallons,,,,,,,,,,,,,Piping,Piping failure,,,,,Other,,,,,,,Yes,,Unknown
9643,,7LTB86,No,RUPP TIRE SHOP,441 Washington St,,Ida Grove,514450000,Ida,IA,7,,,,42.34954,-95.46547,GPS,No further action,1988-09-13,2006-06-27,No,No,No,,,,,,,,,,,,,,,,,,,,,,Other,,,,,,,Yes,,Unknown
715,,8LTA28,No,HONDO'S COOP,103 NORTH 1ST,,Rembrandt,505760000,Buena Vista,IA,7,,,,42.82604,-95.16675,GPS,No further action,1990-10-04,2002-06-27,No,No,No,Gasoline,0.0,Gallons,,,,,,,,,,,,,Unknown,Unknown,,,,,Other,Groundwater Treatment: Other,2001-12-19,,,,,Yes,,Unknown
5811,,7LTS09,No,REUFER INSULATION,505 N 3RD,,Delhi,522230000,Delaware,IA,7,,,,42.43042,-91.33084,GPS,No further action,1990-07-27,2018-07-23,No,No,No,Gasoline,0.0,Gallons,,,,,,,,,,,,,Tank,Overfill (general),,,,,Other,Over-excavation:Sanitary Landfill,2005-06-27,,,,,Yes,,Unknown
16885,,8LTM98,No,GOODE SEED & FEED CO INC,117 E WASHINGTON,,Albia,525310000,Monroe,IA,7,,,,41.02955,-92.81158,GPS,,1991-03-26,,No,No,No,Gasoline,,Gallons,,,,,,,,,,,,,Unknown,Unknown,,,,,Other,Over-excavation:Thru Over-excavation,1991-10-15,,,,,Yes,,Unknown
1967,,7LTI91,No,IOWA FALLS COMM SCHOOL DIST,780 Henderson St,,Iowa Falls,501260000,Hardin,IA,7,,,,42.523,-93.24992,Other,,,,No,No,No,Gasoline,0.0,Gallons,,,,,,,,,,,,,,,,,,,At tank removal,Over-excavation:Thru Over-excavation,,,,,,Yes,,Unknown
15831,,8LTO71,No,MORNING SUN GRAIN CO INC,State Highway 78,,Morning Sun,526400000,Louisa,IA,7,,,,41.08926,-91.2498,GPS,No further action,1991-06-18,1992-05-07,No,No,No,Gasoline,,Gallons,,,,,,,,,,,,,Unknown,Unknown,,,,,At tank removal,Over-excavation:Thru Over-excavation,1992-02-15,,,,,Yes,,Unknown
6470,,7LTW10,No,FORMER MIKES STANDARD,585 PARKER STREET,,Stanhope,502460000,Hamilton,IA,7,,,,42.2895,-93.79626,GPS,No further action,1990-09-17,2005-06-21,No,No,No,Gasoline,0.0,Gallons,,,,,,,,,,,,,,,,,,,Other,,,,,,,Yes,,Unknown
270,,9LTC14,No,FORMER SUN MART GAS STATION,271 E 5th St,,Muscatine,527610000,Muscatine,IA,7,,,,41.42461,-91.04588,GPS,No further action,1995-07-18,2004-03-03,No,No,No,Gasoline,,Gallons,,,,,,,,,,,,,,,,,,,Other,,,,,,,Yes,,Unknown
9003,,8LTY38,No,MIKES 76,2205 CARTER ROAD,,Dubuque,520010000,Dubuque,IA,7,,,,42.50933,-90.71221,GPS,,1994-03-08,,No,No,No,Gasoline,,Gallons,,,,,,,,,,,,,Unknown,Unknown,,,,,Other,,,,,,,Yes,,Unknown
13509,,9LTE45,No,THE R & M FEED MILL CORP,107 E 2ND STREET,,Schaller,510350000,Sac,IA,7,,,,42.49953,-95.29248,GPS,No further action,1996-12-26,1998-07-07,No,No,No,Gasoline,,Gallons,,,,,,,,,,,,,Unknown,Unknown,,,,,Other,,,,,,,Yes,,Unknown
16746,,8LTI23,No,ALVORD SERVICE,201 MAIN STREET,,Alvord,512300000,Lyon,IA,7,,,,43.34299,-96.30151,GPS,No further action,1990-10-30,2016-08-11,No,No,No,Gasoline,,Gallons,,,,,,,,,,,,,Unknown,Unknown,,,,,Other,,,,,,,Yes,,Unknown
188,,8LTX95,No,MOUNT PLEASANT RECREATION CENTER,200 E MONROE STREET,,Mount Pleasant,526410000,Henry,IA,7,,,,40.96635,-91.55193,Other,,1994-01-11,,No,No,No,Diesel,,Gallons,Gasoline,,Gallons,,,,,,,,,,Unknown,Unknown,,,,,At tank removal,,,,,,,Yes,,Unknown
532,,9LTK60,No,DAHL'S,3425 INGERSOLL AVENUE,,Des Moines,50312-,Polk,IA,7,,,,41.58652,-93.6634,GPS,No further action,,2004-06-18,No,No,No,Waste Oil,,Gallons,,,,,,,,,,,,,Unknown,Unknown,,,,,Other,,,,,,,Yes,,Unknown
7805,,7LTA45,No,PAYLESS CASHWAYS,5120 BRADY ST,,Davenport,528060000,Scott,IA,7,,,,41.57183,-90.57008,GPS,,1988-07-28,,No,No,No,Gasoline,0.0,Gallons,,,,,,,,,,,,,,,,,,,Other,Over-excavation:Thru Over-excavation,,,,,,Yes,,Unknown
7462,,7LTG46,No,JOHN DEERE WATERLOO WORKS,400 WESTFIELD,,Waterloo,507010000,Black Hawk,IA,7,,,,42.50096,-92.35471,GPS,Active: general,1989-08-23,,No,No,No,,,,,,,,,,,,,,,,,,,,,,Other,Groundwater Treatment: Other,,,,,,Yes,,Unknown
8014,,7LTQ72,No,FRANKLIN CO MAINTENANCE SHED,316 - 12TH SW,,Hampton,504410000,Franklin,IA,7,,,,42.73828,-93.22109,GPS,No further action,1990-08-16,2006-04-13,No,No,No,,,,,,,,,,,,,,,,,,,,,,At tank removal,,,,,,,Yes,,Unknown
8544,,7LTY49,No,ELDON KWIK STOP,205 W 4TH ST,,Eldon,52554-7702,Wapello,IA,7,,,,40.91812,-92.2227,GPS,No further action,1988-07-01,2006-06-12,No,No,No,Gasoline,0.0,Gallons,,,,,,,,,,,,,,,,,,,At tank removal,,,,,,,Yes,,Unknown
9690,,8LTT32,No,M & D SERVICE,411 1ST STREET,,Meservey,50457,Cerro Gordo,IA,7,,,,42.91143,-93.47839,GPS,No further action,1992-05-17,2003-10-02,No,No,No,Gasoline,,Gallons,,,,,,,,,,,,,Tank,Tank corrosion,,,,,Other,,,,,,,Yes,,Unknown
25,,7LTE85,No,FARMERS COOP CO,308 8 ST SW,,Orange City,510410000,Sioux,IA,7,,,,42.99719,-96.06163,Other,No further action,1989-07-28,2000-01-18,No,No,No,,,,,,,,,,,,,,,,,,,,,,Other,,,,,,,Yes,,Unknown
6756,,8LTT14,No,VALLEY JUNCTION AMOCO,350 GRAND,,West Des Moines,502650000,Polk,IA,7,,,,41.58239,-93.70705,GPS,No further action,1992-05-11,2007-05-18,No,No,No,Waste Oil,,Gallons,Gasoline,,Gallons,,,,,,,,,,,,Unknown,Unknown,,,Other,,,,,,,Yes,,Unknown
9879,,7LTN77,No,KAISER AGRICULTURAL CHEMICALS,301 S Main St,,Hedrick,525630000,Keokuk,IA,7,,,,41.17049,-92.31006,Other,No further action,1990-06-07,2002-01-29,No,No,No,Gasoline,0.0,Gallons,,,,,,,,,,,,,Unknown,Unknown,,,,,At tank removal,,,,,,,Yes,,Unknown
6190,,8LTX21,No,UNITED FEDERAL SAVINGS ASSOC BRANCH,201 EAST LINCOLNWAY,,Jefferson,501290000,Greene,IA,7,,,,42.01504,-94.37319,GPS,No further action,1993-09-09,2010-11-09,No,No,No,Gasoline,,Gallons,,,,,,,,,,,,,Unknown,Unknown,,,,,Other,,,,,,,Yes,,Unknown
7503,,7LTO07,No,FARMERS COOP LUMBER,228 N 1st Ave,,Hospers,512380000,Sioux,IA,7,,,,43.07379,-95.90565,GPS,No further action,1990-06-20,2014-04-30,No,No,No,Diesel,0.0,Gallons,,,,,,,,,,,,,Unknown,Unknown,,,,,Other,Groundwater Treatment: Air Sparging,2011-01-14,,,,,Yes,,Unknown
16757,,8LTK62,No,SALSNESS MOTOR CO,7TH & WATER STREETS,,Sioux City,511010000,Woodbury,IA,7,,,,42.49698,-96.40887,Map interpolation,No further action,1990-11-06,2001-07-13,No,No,No,Gasoline,,Gallons,,,,,,,,,,,,,Unknown,Unknown,,,,,Other,,,,,,,Yes,,Unknown
7237,,8LTM72,No,ATLANTIC STREET DEPARTMENT,211 EAST COMMERCE,,Atlantic,500220000,Cass,IA,7,,,,41.41064,-95.00961,GPS,No further action,1991-04-16,2012-12-21,No,No,No,Gasoline,,Gallons,,,,,,,,,,,,,Unknown,Unknown,,,,,Other,,,,,,,Yes,,Unknown
1931,,9LTH96,No,SHENANDOAH COMMUNITY SCHOOLS,1001 S  CENTER,,Shenandoah,516010000,Page,IA,7,,,,40.75711,-95.36534,GPS,No further action,1999-07-19,2001-06-22,No,No,No,Diesel,,Gallons,,,,,,,,,,,,,,,,,,,At tank removal,,,,,,,Yes,,Unknown
7848,,9LTS52,No,ESTHERVILLE MIDDLE SCHOOL,301 N 6TH STREET,,Estherville,513340000,Emmet,IA,7,,,,43.40514,-94.83767,Map interpolation,,2019-09-19,,No,No,No,Diesel,0.0,Gallons,,,,,,,,,,,,,Unknown,Unknown,,,,,Other,,,,,,,Yes,,Unknown
8653,,7LTL60,No,QUIKTRIP  #513,4600 MERLE HAY RD,,Des Moines,50322,Polk,IA,7,,,,41.6445,-93.69869,Map interpolation,No further action,1990-04-30,2001-04-12,No,No,No,Gasoline,0.0,Gallons,,,,,,,,,,,,,Unknown,Unknown,,,,,Other,,,,,,,Yes,,Unknown
364,,9LTE57,No,FORMER SUNRAY DX STATION,10701 SW Army Post Rd,,West Des Moines,502650000,Polk,IA,7,,,,41.52746,-93.76397,Other,No further action,1996-11-27,2000-05-09,No,No,No,Diesel,,Gallons,Gasoline,,Gallons,,,,,,,,,,,,Unknown,Unknown,,,Other,,,,,,,Yes,,Unknown
5572,,9LTT09,No,AJ'S SERVICE,840 SCHOOL ST,,Carlisle,50047,Warren,IA,7,,,,41.49838,-93.49597,Other,No further action,2021-07-22,2021-09-10,No,No,No,Gasoline,0.0,Gallons,,,,,,,,,,,,,Unknown,Unknown,,,,,Other,,,,,,,Yes,,Unknown
17997,,9LTN24,No,LINCOLN HIGH SCHOOL,2600 SW 9TH,,Des Moines,50315,Polk,IA,7,,,,41.56217,-93.6281,Map interpolation,No further action,2007-07-02,2009-08-18,No,No,No,Diesel,0.0,Gallons,,,,,,,,,,,,,Tank,Tank corrosion,,,,,At tank removal,,,,,,,Yes,,Unknown
6781,,8LTS50,No,GIT N GO #32,2911 DOUGLAS AVE,,Des Moines,50313,Polk,IA,7,,,,41.62974,-93.65853,GPS,No further action,1992-03-04,1997-12-02,No,No,No,Gasoline,,Gallons,,,,,,,,,,,,,Unknown,Unknown,,,,,Other,,,,,,,Yes,,Unknown
91,,8LTP55,No,EUGENE BURKEN,1039 410th Ave,,Miles,520640000,Clinton,IA,7,,,,42.02734,-90.28803,GPS,,1991-04-10,,No,No,No,Gasoline,,Gallons,,,,,,,,,,,,,Piping,Piping failure,,,,,Other,,,,,,,Yes,,Unknown
7474,,9LTE68,No,CONOCO LE GRAND,806 W MAIN ST,,Le Grand,50142-7746,Marshall,IA,7,,,,42.00681,-92.78478,Geocoded address,No further action,1997-03-25,2023-04-21,No,No,No,Gasoline,1000.0,Gallons,,,,,,,,,,,,,Unknown,Unknown,,,,,Other,Groundwater Treatment: Injection Oxygen,2020-02-05,,,,,Yes,,Unknown
4826,,8LTN01,No,CASEY'S GENERAL STORE 2585,1402 9TH ST SE,,Dyersville,52040,Dubuque,IA,7,,,,42.47223,-91.11461,GPS,No further action,1991-04-15,2006-10-12,No,No,No,,,,,,,,,,,,,,,,,,,,,,Other,,,,,,,Yes,,Unknown
5201,,7LTO78,No,GIT-N-GO #4,1325 GRAND AVE,,West Des Moines,50265,Polk,IA,7,,,,41.5802,-93.72217,Other,No further action,1990-07-09,2000-02-16,No,No,No,Gasoline,0.0,Gallons,,,,,,,,,,,,,,,,,,,Other,,,,,,,Yes,,Unknown
6085,,9LTC85,No,SHADY OAKS,1409 WEST MAIN,,Lake City,514490000,Calhoun,IA,7,,,,42.26476,-94.75125,Other,,1995-12-21,,No,No,No,Diesel,,Gallons,,,,,,,,,,,,,Unknown,Unknown,,,,,At tank removal,,,,,,,Yes,,Unknown
47,,7LTK93,No,PARKER FARM,2410 Brentwood Ave,,Bayard,500290000,Greene,IA,7,,,,41.8762,-94.60053,GPS,,1990-03-06,,No,No,No,Diesel,0.0,Gallons,Gasoline,0.0,Gallons,,,,,,,,,,Unknown,Unknown,,,,,At tank removal,,,,,,,Yes,,Unknown
1844,,9LTL07,No,CEC ROCK RAPIDS,102 1ST AVE,,Rock Rapids,51246,Lyon,IA,7,,,,43.43186,-96.16567,Other,No further action,2003-10-02,2010-07-19,No,No,No,Gasoline,800.0,Gallons,,,,,,,,,,,,,Tank,Tank corrosion,,,,,Other,,,,,,,Yes,,Unknown
10166,,8LTS82,No,DALES TEXACO,1010 MORTON AVE,,Emerson,515330000,Mills,IA,7,,,,41.01688,-95.39864,GPS,No further action,1992-04-03,2005-09-06,No,No,No,Diesel,,Gallons,Gasoline,,Gallons,,,,,,,,,,Unknown,Unknown,,,,,At tank removal,,,,,,,Yes,,Unknown
10232,,9LTD12,No,DES MOINES AIRPORT/VEHICLE MAINT,4105 THUNDERSTREAK DR,,Des Moines,50321,Polk,IA,7,,,,41.53873,-93.65734,GPS,No further action,1995-04-18,1998-03-24,No,No,No,Fuel Oil,,Gallons,,,,,,,,,,,,,Unknown,Unknown,,,,,At tank removal,,,,,,,Yes,,Unknown
350,,9LTE21,No,ABF TRUCKING,2200 16TH AVE SW,,Cedar Rapids,524040000,Linn,IA,7,,,,41.96306,-91.70182,GPS,No further action,1996-11-25,1998-09-11,No,No,No,Gasoline,,Gallons,,,,,,,,,,,,,Unknown,Unknown,,,,,Other,,,,,,,Yes,,Unknown
3123,,8LTB33,No,JASPER COUNTY HWY DEPT YARD,910 N 11TH AVE E,,Newton,502080000,Jasper,IA,7,,,,41.71011,-93.04272,GPS,,1990-09-28,,No,No,No,Diesel,0.0,Gallons,Gasoline,0.0,Gallons,,,,,,,,,,,,,,,,Other,,,,,,,Yes,,Unknown
16729,,8LTK07,No,HOME OIL CO,811 WEST SHERIDAN AVE,,Shenandoah,516010000,Page,IA,7,,,,40.76609,-95.37573,GPS,No further action,1990-10-17,2001-11-09,No,No,No,Gasoline,,Gallons,,,,,,,,,,,,,Unknown,Unknown,,,,,Other,,,,,,,Yes,,Unknown
16542,,8LTQ09,No,FORMERLY DICKS SHORT STOP,3246 73rd St,,Atkins,522060000,Benton,IA,7,,,,41.96353,-91.86366,GPS,No further action,1991-09-13,2002-01-31,No,No,No,Kerosene,,Gallons,Gasoline,,Gallons,Diesel,,Gallons,,,,,,,,,Unknown,Unknown,,,At tank removal,,,,,,,Yes,,Unknown
7395,,9LTP45,No,ADVANCED UNDERGROUND CONSTRUCTION,2460 GRAND AVE,,West Des Moines,502650000,Polk,IA,7,,,,41.55776,-93.73674,Other,,2011-09-23,,No,No,No,Waste Oil,0.0,Gallons,Diesel,0.0,Gallons,,,,,,,,,,Tank,Overfill (general),,,,,Other,,,,,,,Yes,,Unknown
70,,8LTL00,No,CITY OF LE CLAIRE,3RD & WISCONSIN  CITY WELL #1,,Le Claire,527530000,Scott,IA,7,,,,41.59791,-90.34715,Other,No further action,1984-08-01,2004-03-22,No,No,No,Gasoline,,Gallons,,,,,,,,,,,,,Unknown,Unknown,,,,,Other,,,,,,,Yes,,Unknown
9521,,7LTW02,No,CAVNER OIL COMPANY,222 NO 16TH ST,,Clarinda,516320000,Page,IA,7,,,,40.74013,-95.03807,GPS,No further action,1990-09-21,2001-12-27,No,No,No,Diesel,0.0,Gallons,Gasoline,0.0,Gallons,,,,,,,,,,,,,,,,Other,,,,,,,Yes,,Unknown
3587,,7LTR21,No,CASEY'S GENERAL STORE 2307,101 A ST SW,,Melcher-Dallas,50163,Marion,IA,7,,,,41.22258,-93.24222,GPS,No further action,1990-08-16,1999-07-29,No,No,No,Gasoline,0.0,Gallons,,,,,,,,,,,,,Unknown,Unknown,,,,,Other,,,,,,,Yes,,Unknown
15948,,7LTJ10,No,THORNTON CLASSIC STOP,100 LARCH ST,,Thornton,50479,Cerro Gordo,IA,7,,,,42.9447,-93.38025,GPS,No further action,1989-12-28,2001-08-14,No,No,No,,,,,,,,,,,,,,,,,,,,,,Other,,,,,,,Yes,,Unknown
17499,,9LTG68,No,A-1 USED CARS,1009 S FEDERAL,,Mason City,504010000,Cerro Gordo,IA,7,,,,43.14168,-93.20082,GPS,No further action,1998-06-04,2001-09-28,No,No,No,Gasoline,0.0,Gallons,,,,,,,,,,,,,,,,,,,At tank removal,,,,,,,Yes,,Unknown
3045,,8LTP09,No,FARMERS UNION MERCANTILE CO-Kingston,20415 Highway 99,,Sperry,526370000,Des Moines,IA,7,,,,40.97713,-91.04099,GPS,,1991-07-23,,No,No,No,Gasoline,,Gallons,,,,,,,,,,,,,Unknown,Unknown,,,,,Other,,,,,,,Yes,,Unknown
29,,7LTG27,No,REMSEN POWER PLANT,125 E 1ST ST,,Remsen,510500000,Plymouth,IA,7,,,,42.81647,-95.97183,GPS,,1989-10-11,,No,No,No,Gasoline,0.0,Gallons,,,,,,,,,,,,,Unknown,Unknown,,,,,At tank removal,Over-excavation:Thru Over-excavation,,,,,,Yes,,Unknown
8915,,8LTI20,No,FORMER KATUIN  BROTHERS,40 TERMINAL ST,,Dubuque,520010000,Dubuque,IA,7,,,,42.49282,-90.65908,GPS,,1990-11-27,,No,No,No,Diesel,,Gallons,,,,,,,,,,,,,Unknown,Unknown,,,,,At tank removal,,,,,,,Yes,,Unknown
7653,,9LTO35,No,DRAKE TEXACO,3401 UNIVERSITY,,Des Moines,503110000,Polk,IA,7,,,,41.60056,-93.66354,GPS,No further action,2009-08-03,2011-09-01,No,No,No,Gasoline,0.0,Gallons,,,,,,,,,,,,,Piping,Piping failure,,,,,Other,,,,,,,Yes,,Unknown
5691,,8LTU31,No,KUM & GO #302,2905 4th Ave S # 2815,,Clear Lake,50428,Cerro Gordo,IA,7,,,,43.13354,-93.35256,Map interpolation,,1992-08-21,,No,No,No,Diesel,,Gallons,Gasoline,,Gallons,,,,,,,,,,,,Unknown,Unknown,,,Other,,,,,,,Yes,,Unknown
7801,,9LTG11,No,JOHNSON OIL CO,303 W. MAIN,,Seymour,525900000,Wayne,IA,7,,,,40.68158,-93.11866,GPS,Active: general,1998-03-23,,No,No,No,Gasoline,,Gallons,,,,,,,,,,,,,Unknown,Unknown,,,,,Other,,,,,,,Yes,,Unknown
2930,,8LTD59,No,OBRIEN COUNTY MAINT BUILDING,660 11TH ST,,Primghar,512450000,O'Brien,IA,7,,,,43.08624,-95.62866,GPS,,1990-10-24,,Yes,No,No,Diesel,0.0,Gallons,Gasoline,0.0,Gallons,,,,,,,,,,,,Unknown,Unknown,,,Other,,,,,,,Yes,,Unknown
6779,,8LTI46,No,AMOCO OIL SS#8810,7810 MIDDLE ROAD,,Bettendorf,527220000,Scott,IA,7,,,,41.59993,-90.45932,Other,No further action,1990-10-29,1998-04-17,No,No,No,Waste Oil,,Gallons,Gasoline,,Gallons,,,,,,,,,,Unknown,Unknown,,,,,Other,,,,,,,Yes,,Unknown
3137,,9LTO46,No,CASEY'S GENERAL STORE 2874,210 W MAIN ST,,Riceville,50466-7656,Mitchell,IA,7,,,,43.36411,-92.55649,Map interpolation,No further action,2009-12-18,2010-08-23,No,No,No,Diesel,0.0,Gallons,,,,,,,,,,,,,Other,Other,,,,,Other,,,,,,,Yes,,Unknown
9506,,9LTB30,No,W&H COOP OIL,200 NELLIE ST,,Woolstock,50599,Wright,IA,7,,,,42.5652,-93.8432,GPS,No further action,1995-01-20,2001-06-20,No,No,No,Diesel,,Gallons,Gasoline,,Gallons,,,,,,,,,,Tank,Tank corrosion,,,,,At tank removal,,,,,,,Yes,,Unknown
2431,,8LTA89,No,INLAND MOLASSES,5 JONES STREET,,Dubuque,520010000,Dubuque,IA,7,,,,42.49194,-90.6599,GPS,,1990-10-10,,No,No,No,Waste Oil,0.0,Gallons,,,,,,,,,,,,,,,,,,,At tank removal,Over-excavation:Thru Over-excavation,,,,,,Yes,,Unknown
8128,,9LTM16,No,FORMER HARNEY OIL,215 E 11TH ST,,Coralville,522410000,Johnson,IA,7,,,,41.68408,-91.56148,Other,No further action,2005-08-04,2008-05-13,No,No,No,Waste Oil,,Gallons,,,,,,,,,,,,,Unknown,Unknown,,,,,Other,,,,,,,Yes,,Unknown
10210,,9LTN62,No,PILOT TRAVEL CENTER #268,2975 N PLAINVIEW RD,,Walcott,52773,Scott,IA,7,,,,41.615,-90.78192,GPS,No further action,2008-07-23,2010-12-20,No,No,No,Diesel,0.0,Gallons,,,,,,,,,,,,,Other,Other,,,,,Other,,,,,,,Yes,,Unknown
9207,,8LTH41,No,FORMER JOY MART,901 MAIN,,Keokuk,526320000,Lee,IA,7,,,,40.3993,-91.38653,GPS,No further action,1990-10-04,2011-05-19,No,No,No,Waste Oil,,Gallons,Gasoline,,Gallons,Diesel,,Gallons,,,,,,,Unknown,Unknown,,,,,At tank removal,,,,,,,Yes,,Unknown
14110,,9LTN09,No,TAYLOR QUIK PIK 33,14151 WABASH AVE,,Council Bluffs,51503,Pottawattamie,IA,7,,,,41.22059,-95.81761,Map interpolation,No further action,2007-04-10,2010-03-29,No,No,No,Gasoline,0.0,Gallons,,,,,,,,,,,,,Tank,Overfill (general),,,,,Other,,,,,,,Yes,,Unknown
4919,,8LTK75,No,WATERLOO COMMUNITY SCHOOL DISTRICT,1350 S HACKETT RD,,Waterloo,507010000,Black Hawk,IA,7,,,,42.49316,-92.40241,GPS,No further action,1991-01-22,2002-01-28,No,No,No,Gasoline,,Gallons,,,,,,,,,,,,,Unknown,Unknown,,,,,At tank removal,,,,,,,Yes,,Unknown
688,,8LTT97,No,CARGO EXPRESS,202 W SOUTHERN ST,,Sutherland,51058-7625,O'Brien,IA,7,,,,42.96832,-95.49959,GPS,No further action,1992-07-27,2005-12-06,No,No,No,Diesel,0.0,Gallons,,,,,,,,,,,,,,,,,,,Other,,,,,,,Yes,,Unknown
15313,,9LTI68,No,DON KRIEGER,309 N 1ST ST,,Terril,513640000,Dickinson,IA,7,,,,43.30623,-94.97374,GPS,No further action,2000-04-10,2013-08-30,No,No,No,Gasoline,,Gallons,,,,,,,,,,,,,,,,,,,Other,,,,,,,Yes,,Unknown
3814,,7LTG05,No,ENRON GAS PIPELINE,2557 G Ave,,Redfield,502330000,Dallas,IA,7,,,,41.66418,-94.16327,GPS,No further action,,1999-04-12,No,No,No,Gasoline,0.0,Gallons,,,,,,,,,,,,,,,,,,,At tank removal,,,,,,,Yes,,Unknown
18400,,9LTR56,No,ORPHAN UST SITE,401 2ND AVENUE NORTHEAST,,West Bend,50597,Palo Alto,IA,7,,,,42.96613,-94.44316,Geocoded address,No further action,2016-10-04,2017-03-02,No,No,No,Gasoline,0.0,Gallons,,,,,,,,,,,,,Piping,Piping failure,,,,,Other,,,,,,,Yes,,Unknown
9464,,8LTZ00,No,IDOT FACILITY,3501 MILLARDS LN,,Webster City,50595,Hamilton,IA,7,,,,42.43815,-93.80673,GPS,,1994-04-28,,No,No,No,Diesel,,Gallons,,,,,,,,,,,,,Unknown,Unknown,,,,,At tank removal,Over-excavation:Thru Over-excavation,1994-07-15,,,,,Yes,,Unknown
7290,,7LTY38,No,SARU FOOD MART,1543 STATE ST,,Bettendorf,52722,Scott,IA,7,,,,41.52487,-90.51036,GPS,No further action,1985-12-13,2013-10-01,No,No,No,Gasoline,0.0,Gallons,,,,,,,,,,,,,Unknown,Unknown,,,,,Other,Groundwater Treatment: Other,2005-01-15,,,,,Yes,,Unknown
7803,,8LTN43,No,CENTERVILLE MUNICIPAL AIRPORT,20320 545TH STREET,,Centerville,525440000,Appanoose,IA,7,,,,40.68884,-92.90009,GPS,,1991-03-13,,No,No,No,Gasoline,,Gallons,,,,,,,,,,,,,Unknown,Unknown,,,,,Other,,,,,,,Yes,,Unknown
666,,9LTR92,No,LIQUOR ON THE CORNER/GRAVENISH SERVICE,312 E MAIN ST,,Cherokee,51012-2046,Cherokee,IA,7,,,,42.7497,-95.54716,Geocoded address,No further action,2017-08-09,2018-07-17,No,No,No,Gasoline,0.0,Gallons,,,,,,,,,,,,,Unknown,Unknown,,,,,Other,,,,,,,Yes,,Unknown
16656,,8LTH42,No,THOMAS PARK,643 MARION BLVD,,Marion,523020000,Linn,IA,7,,,,42.02764,-91.61726,Other,,1990-11-08,,No,No,No,Diesel,,Gallons,Gasoline,,Gallons,,,,,,,,,,,,Unknown,Unknown,,,At tank removal,Over-excavation:Thru Over-excavation,1990-11-15,,,,,Yes,,Unknown
6212,,7LTL72,No,KIRKWOOD 76 STATION,300 KIRKWOOD AVE,,Iowa City,52240,Johnson,IA,7,,,,41.64961,-91.53174,GPS,,1990-04-27,,No,No,No,Gasoline,0.0,Gallons,,,,,,,,,,,,,,,,,,,Other,,,,,,,Yes,,Unknown
5893,,7LTJ88,No,SEYMOUR CONOCO,236 N 5TH,,Seymour,525900000,Wayne,IA,7,,,,40.6834,-93.12086,GPS,No further action,1989-09-19,1994-03-22,No,No,No,Gasoline,0.0,Gallons,,,,,,,,,,,,,,,,,,,Other,,,,,,,Yes,,Unknown
17081,,8LTW93,No,USDA APHIS VS NVSL/CVB-L FACILITY MANAGER,1800 DAYTON AVE,,Ames,50010,Story,IA,7,,,,42.04025,-93.58153,Map interpolation,,1993-09-02,,No,No,No,Diesel,,Gallons,Gasoline,,Gallons,,,,,,,,,,,,Unknown,Unknown,,,Other,,,,,,,Yes,,Unknown
910,,7LTO53,No,KJ'S DELI MART,122 N CODY ROAD,,Le Claire,527530000,Scott,IA,7,,,,41.59852,-90.34418,GPS,No further action,1990-06-23,2004-03-18,No,No,No,Gasoline,0.0,Gallons,,,,,,,,,,,,,,,,,,,Other,,,,,,,Yes,,Unknown
937,,8LTQ82,No,GRISWOLD REDI MIX CO INC,612 5TH,,Griswold,515350000,Cass,IA,7,,,,41.23271,-95.1401,GPS,,1991-10-29,,No,No,No,Diesel,,Gallons,,,,,,,,,,,,,Unknown,Unknown,,,,,At tank removal,,,,,,,Yes,,Unknown
4527,,8LTE85,No,BLUNT LIMITED,1309 IOWA AVENUE,,Marshalltown,501580000,Marshall,IA,7,,,,42.00791,-92.93427,GPS,Active: general,1990-10-25,,No,No,No,Gasoline,0.0,Gallons,,,,,,,,,,,,,,,,,,,Other,,,,,,,Yes,,Unknown
54,,7LTN04,No,"GTE DATA SERVICES, INC",821 5TH AVE,,Grinnell,501120000,Poweshiek,IA,7,,,,41.74463,-92.72459,Other,No further action,1989-10-10,1993-06-23,No,No,No,Fuel Oil,0.0,Gallons,,,,,,,,,,,,,Unknown,Unknown,,,,,At tank removal,,,,,,,Yes,,Unknown
18106,,9LTT47,No,KUM & GO #80,1178 ENTERPRISE DR,,Riverside,52327,Washington,IA,7,,,,41.48636,-91.55514,Map interpolation,No further action,2022-11-07,2023-07-07,No,No,No,Diesel,0.0,Gallons,,,,,,,,,,,,,Dispenser,Other,,,,,Other,,,,,,,Yes,,Unknown
571,,9LTL68,No,NEVADA COMM SCHOOLS,1035 - 15TH STREET,,Nevada,50201-,Story,IA,7,,,,42.02111,-93.43814,GPS,,2004-09-07,,No,No,No,Fuel Oil,,Gallons,,,,,,,,,,,,,Tank,Tank corrosion,,,,,Other,,,,,,,Yes,,Unknown
1483,,8LTI82,No,COUNCIL BLUFFS SERVICE CENTER,3003 S 11TH ST,,Council Bluffs,51501,Pottawattamie,IA,7,,,,41.23102,-95.86017,GPS,No further action,1990-10-11,2002-06-06,No,No,No,Gasoline,,Gallons,,,,,,,,,,,,,Unknown,Unknown,,,,,At tank removal,,,,,,,Yes,,Unknown
3221,,7LTJ86,No,FEUERBACH OIL CO,78 MAIN,,Keystone,522490000,Benton,IA,7,,,,41.99794,-92.19787,GPS,,1989-12-28,,No,No,No,Gasoline,0.0,Gallons,,,,,,,,,,,,,Piping,Piping failure,,,,,Other,,,,,,,Yes,,Unknown
8900,,8LTF12,No,FORMER MA & PA STORES,912 6TH AVE,,Grinnell,501120000,Poweshiek,IA,7,,,,41.74577,-92.72384,Other,No further action,1990-10-22,1999-08-18,No,No,No,Diesel,0.0,Gallons,Gasoline,0.0,Gallons,,,,,,,,,,,,,,,,At tank removal,,,,,,,Yes,,Unknown
6783,,7LTQ28,No,AMOCO #9522,4108 FLEUR DR,,Des Moines,503150000,Polk,IA,7,,,,41.5465,-93.64535,GPS,No further action,1990-06-22,1998-08-14,No,No,No,Gasoline,0.0,Gallons,,,,,,,,,,,,,,,,,,,Other,,,,,,,Yes,,Unknown
